[
  {
    "locId": "L10913808",
    "country": "US",
    "region": "US-UT",
    "subregion": "US-UT-053",
    "lat": 37.294524,
    "lng": -113.692871,
    "name": "\"The Maze\" Trail"
  },
  {
    "locId": "L5213421",
    "country": "US",
    "region": "US-UT",
    "subregion": "US-UT-035",
    "lat": 40.5369599,
    "lng": -112.0426726,
    "name": "11800 S"
  },
  {
    "locId": "L13080644",
    "country": "US",
    "region": "US-UT",
    "subregion": "US-UT-035",
    "lat": 40.7830761,
    "lng": -111.8632221,
    "name": "11th Ave Park"
  },
  {
    "locId": "L1668698",
    "country": "US",
    "region": "US-UT",
    "subregion": "US-UT-005",
    "lat": 41.7625926,
    "lng": -111.8646137,
    "name": "1200 W 1700 N (Cache Co.)"
  },
  {
    "locId": "L825338",
    "country": "US",
    "region": "US-UT",
    "subregion": "US-UT-005",
    "lat": 41.696821,
    "lng": -111.8718481,
    "name": "16-16 Pond"
  },
  {
    "locId": "L353813",
    "country": "US",
    "region": "US-UT",
    "subregion": "US-UT-005",
    "lat": 41.6939434,
    "lng": -111.8824224,
    "name": "20-20 Ponds"
  },
  {
    "locId": "L1589734",
    "country": "US",
    "region": "US-UT",
    "subregion": "US-UT-057",
    "lat": 41.2340965,
    "lng": -111.9930973,
    "name": "21st St Pond"
  },
  {
    "locId": "L2694181",
    "country": "US",
    "region": "US-UT",
    "subregion": "US-UT-057",
    "lat": 41.3070845,
    "lng": -111.9990921,
    "name": "2700 N Pond"
  },
  {
    "locId": "L474280",
    "country": "US",
    "region": "US-UT",
    "subregion": "US-UT-035",
    "lat": 40.828359,
    "lng": -111.9680222,
    "name": "3200 West (SLC Airport to 3200 N)"
  },
  {
    "locId": "L151125",
    "country": "US",
    "region": "US-UT",
    "subregion": "US-UT-057",
    "lat": 41.19861,
    "lng": -111.93672,
    "name": "36th Street Trailhead"
  },
  {
    "locId": "L11131233",
    "country": "US",
    "region": "US-UT",
    "subregion": "US-UT-019",
    "lat": 39.125528,
    "lng": -109.342284,
    "name": "3way Pond"
  },
  {
    "locId": "L504335",
    "country": "US",
    "region": "US-UT",
    "subregion": "US-UT-049",
    "lat": 40.1437905,
    "lng": -111.7493248,
    "name": "4000 West & Lake Shore (Utah Co.)"
  },
  {
    "locId": "L8604168",
    "country": "US",
    "region": "US-UT",
    "subregion": "US-UT-011",
    "lat": 41.0748147,
    "lng": -112.1031871,
    "name": "4000 West 2700 South, Syracuse, UT 84075"
  },
  {
    "locId": "L5131229",
    "country": "US",
    "region": "US-UT",
    "subregion": "US-UT-005",
    "lat": 41.8090045,
    "lng": -111.8603039,
    "name": "4200 N Fields"
  },
  {
    "locId": "L1157115",
    "country": "US",
    "region": "US-UT",
    "subregion": "US-UT-049",
    "lat": 40.1367266,
    "lng": -111.7576504,
    "name": "4400 West 5200 South in Lakeshore (Utah Co)"
  },
  {
    "locId": "L35067610",
    "country": "US",
    "region": "US-UT",
    "subregion": "US-UT-005",
    "lat": 41.7193766,
    "lng": -111.9712191,
    "name": "548 N 160 E"
  },
  {
    "locId": "L553245",
    "country": "US",
    "region": "US-UT",
    "subregion": "US-UT-035",
    "lat": 40.7558072,
    "lng": -112.0095849,
    "name": "5600 West Traps (Salt Lake Co.)"
  },
  {
    "locId": "L607049",
    "country": "US",
    "region": "US-UT",
    "subregion": "US-UT-049",
    "lat": 40.2058859,
    "lng": -111.6677642,
    "name": "5th West Sportsman Access"
  },
  {
    "locId": "L596320",
    "country": "US",
    "region": "US-UT",
    "subregion": "US-UT-035",
    "lat": 40.7222827,
    "lng": -112.0818329,
    "name": "8000 West 2200 South Trap (Salt Lake Co.)"
  },
  {
    "locId": "L5945472",
    "country": "US",
    "region": "US-UT",
    "subregion": "US-UT-003",
    "lat": 41.9346253,
    "lng": -112.2308135,
    "name": "8600 West--Portage to Nucor Steel"
  },
  {
    "locId": "L1309094",
    "country": "US",
    "region": "US-UT",
    "subregion": "US-UT-003",
    "lat": 41.5324831,
    "lng": -112.4794006,
    "name": "ATK Ranch--North Pond"
  },
  {
    "locId": "L1278252",
    "country": "US",
    "region": "US-UT",
    "subregion": "US-UT-003",
    "lat": 41.5215917,
    "lng": -112.4760532,
    "name": "ATK Ranch--South Pond"
  },
  {
    "locId": "L607066",
    "country": "US",
    "region": "US-UT",
    "subregion": "US-UT-037",
    "lat": 37.8379878,
    "lng": -109.7721291,
    "name": "Abajo Mountains -- West Side"
  },
  {
    "locId": "L3563381",
    "country": "US",
    "region": "US-UT",
    "subregion": "US-UT-037",
    "lat": 37.9018387,
    "lng": -109.5100048,
    "name": "Abajo Mountains--Foy Lake"
  },
  {
    "locId": "L3563379",
    "country": "US",
    "region": "US-UT",
    "subregion": "US-UT-037",
    "lat": 37.8950065,
    "lng": -109.4681436,
    "name": "Abajo Mountains--Monticello Lake"
  },
  {
    "locId": "L3563386",
    "country": "US",
    "region": "US-UT",
    "subregion": "US-UT-037",
    "lat": 37.9078068,
    "lng": -109.4867206,
    "name": "Abajo Mountains--Rd 101 North Slope"
  },
  {
    "locId": "L1533307",
    "country": "US",
    "region": "US-UT",
    "subregion": "US-UT-035",
    "lat": 40.5068093,
    "lng": -111.8867161,
    "name": "Adagio Apartments Pond"
  },
  {
    "locId": "L7162342",
    "country": "US",
    "region": "US-UT",
    "subregion": "US-UT-025",
    "lat": 37.3771316,
    "lng": -112.1701956,
    "name": "Adair Lake"
  },
  {
    "locId": "L1498503",
    "country": "US",
    "region": "US-UT",
    "subregion": "US-UT-005",
    "lat": 41.7422196,
    "lng": -111.8217353,
    "name": "Adams Park"
  },
  {
    "locId": "L15319690",
    "country": "US",
    "region": "US-UT",
    "subregion": "US-UT-027",
    "lat": 38.7540314,
    "lng": -112.3656483,
    "name": "Adelaide Campground"
  },
  {
    "locId": "L46527459",
    "country": "US",
    "region": "US-UT",
    "subregion": "US-UT-049",
    "lat": 40.1010538,
    "lng": -111.6319084,
    "name": "Adventure Heights All-Abilities Park"
  },
  {
    "locId": "L3651980",
    "country": "US",
    "region": "US-UT",
    "subregion": "US-UT-035",
    "lat": 40.8104962,
    "lng": -111.6793942,
    "name": "Affleck Park & Campground"
  },
  {
    "locId": "L22453163",
    "country": "US",
    "region": "US-UT",
    "subregion": "US-UT-003",
    "lat": 41.3518372,
    "lng": -112.0503229,
    "name": "Ag Fields Southeast of Willard Reservoir--8700 S"
  },
  {
    "locId": "L1394437",
    "country": "US",
    "region": "US-UT",
    "subregion": "US-UT-005",
    "lat": 41.7836863,
    "lng": -111.8768656,
    "name": "Airport Rd"
  },
  {
    "locId": "L12575037",
    "country": "US",
    "region": "US-UT",
    "subregion": "US-UT-035",
    "lat": 40.730357,
    "lng": -111.850177,
    "name": "Allen Park"
  },
  {
    "locId": "L1444823",
    "country": "US",
    "region": "US-UT",
    "subregion": "US-UT-049",
    "lat": 40.3932832,
    "lng": -111.9069438,
    "name": "Allred's Pond"
  },
  {
    "locId": "L608977",
    "country": "US",
    "region": "US-UT",
    "subregion": "US-UT-049",
    "lat": 40.4338332,
    "lng": -111.6152787,
    "name": "Alpine Loop Rd."
  },
  {
    "locId": "L1397007",
    "country": "US",
    "region": "US-UT",
    "subregion": "US-UT-049",
    "lat": 40.4472657,
    "lng": -111.644121,
    "name": "Alpine Loop Rd.--Mutual Dell"
  },
  {
    "locId": "L1400956",
    "country": "US",
    "region": "US-UT",
    "subregion": "US-UT-049",
    "lat": 40.4500872,
    "lng": -111.6432006,
    "name": "Alpine Loop Rd.--Pine Hollow Trailhead"
  },
  {
    "locId": "L504337",
    "country": "US",
    "region": "US-UT",
    "subregion": "US-UT-049",
    "lat": 40.4311342,
    "lng": -111.638791,
    "name": "Alpine Loop Rd.--Timpooneke CG & Trailhead"
  },
  {
    "locId": "L571255",
    "country": "US",
    "region": "US-UT",
    "subregion": "US-UT-049",
    "lat": 40.4048157,
    "lng": -111.6058978,
    "name": "Alpine Loop Scenic Byway--Aspen Grove TH"
  },
  {
    "locId": "L4765673",
    "country": "US",
    "region": "US-UT",
    "subregion": "US-UT-049",
    "lat": 40.4322163,
    "lng": -111.6135943,
    "name": "Alpine Loop Scenic Byway--Ridge Trail 157"
  },
  {
    "locId": "L1407733",
    "country": "US",
    "region": "US-UT",
    "subregion": "US-UT-035",
    "lat": 40.5762169,
    "lng": -111.8371618,
    "name": "Alta Canyon Park (incl. Woodlot @ 9800 S 1900 E)"
  },
  {
    "locId": "L693440",
    "country": "US",
    "region": "US-UT",
    "subregion": "US-UT-005",
    "lat": 41.8599089,
    "lng": -111.9320583,
    "name": "Amalga Barrens"
  },
  {
    "locId": "L476481",
    "country": "US",
    "region": "US-UT",
    "subregion": "US-UT-005",
    "lat": 41.8521735,
    "lng": -111.9323158,
    "name": "Amalga Barrens Sanctuary"
  },
  {
    "locId": "L4934496",
    "country": "US",
    "region": "US-UT",
    "subregion": "US-UT-005",
    "lat": 41.8445971,
    "lng": -111.8869972,
    "name": "Amalga Cheese Plant Pond"
  },
  {
    "locId": "L4081206",
    "country": "US",
    "region": "US-UT",
    "subregion": "US-UT-005",
    "lat": 41.8632968,
    "lng": -111.8954945,
    "name": "Amalga city and surrounding fields"
  },
  {
    "locId": "L2182218",
    "country": "US",
    "region": "US-UT",
    "subregion": "US-UT-035",
    "lat": 40.8211493,
    "lng": -112.0785713,
    "name": "Ambassador Duck Club (private)"
  },
  {
    "locId": "L19101048",
    "country": "US",
    "region": "US-UT",
    "subregion": "US-UT-049",
    "lat": 40.3930792,
    "lng": -111.7751598,
    "name": "American Fork Amphitheater"
  },
  {
    "locId": "L504317",
    "country": "US",
    "region": "US-UT",
    "subregion": "US-UT-049",
    "lat": 40.3431833,
    "lng": -111.8021107,
    "name": "American Fork Boat Harbor Area"
  },
  {
    "locId": "L504749",
    "country": "US",
    "region": "US-UT",
    "subregion": "US-UT-049",
    "lat": 40.4468817,
    "lng": -111.686883,
    "name": "American Fork Canyon "
  },
  {
    "locId": "L506735",
    "country": "US",
    "region": "US-UT",
    "subregion": "US-UT-049",
    "lat": 40.4905978,
    "lng": -111.6554475,
    "name": "American Fork Canyon--Granite Flat CG"
  },
  {
    "locId": "L1400968",
    "country": "US",
    "region": "US-UT",
    "subregion": "US-UT-049",
    "lat": 40.4627376,
    "lng": -111.6571743,
    "name": "American Fork Canyon--Martin & Roadhouse Picnic Areas"
  },
  {
    "locId": "L1400978",
    "country": "US",
    "region": "US-UT",
    "subregion": "US-UT-049",
    "lat": 40.4323865,
    "lng": -111.7485169,
    "name": "American Fork Canyon--Mouth"
  },
  {
    "locId": "L1558804",
    "country": "US",
    "region": "US-UT",
    "subregion": "US-UT-049",
    "lat": 40.5211368,
    "lng": -111.6720207,
    "name": "American Fork Canyon--Silver Lake Hike"
  },
  {
    "locId": "L1397014",
    "country": "US",
    "region": "US-UT",
    "subregion": "US-UT-049",
    "lat": 40.4434854,
    "lng": -111.7097171,
    "name": "American Fork Canyon--Swinging Bridge Picnic Area & Trail"
  },
  {
    "locId": "L5987418",
    "country": "US",
    "region": "US-UT",
    "subregion": "US-UT-049",
    "lat": 40.4401812,
    "lng": -111.7111999,
    "name": "American Fork Canyon--Timpanogos Cave Trail"
  },
  {
    "locId": "L7893843",
    "country": "US",
    "region": "US-UT",
    "subregion": "US-UT-043",
    "lat": 40.7576965,
    "lng": -110.7684794,
    "name": "Amethyst Basin"
  },
  {
    "locId": "L504738",
    "country": "US",
    "region": "US-UT",
    "subregion": "US-UT-049",
    "lat": 40.3631085,
    "lng": -111.7205018,
    "name": "Anderson Park "
  },
  {
    "locId": "L24880165",
    "country": "US",
    "region": "US-UT",
    "subregion": "US-UT-035",
    "lat": 40.7437758,
    "lng": -111.8297947,
    "name": "Anderson-Foothill Branch Library"
  },
  {
    "locId": "L11056885",
    "country": "US",
    "region": "US-UT",
    "subregion": "US-UT-011",
    "lat": 41.0731833,
    "lng": -111.9319138,
    "name": "Andy Adams Community Fishery"
  },
  {
    "locId": "L2054664",
    "country": "US",
    "region": "US-UT",
    "subregion": "US-UT-025",
    "lat": 37.1311714,
    "lng": -112.5419712,
    "name": "Angel Canyon Rd (.incl Best Friends Animal Society)"
  },
  {
    "locId": "L12199525",
    "country": "US",
    "region": "US-UT",
    "subregion": "US-UT-051",
    "lat": 40.2995202,
    "lng": -111.1306306,
    "name": "Angela Heddlesten Memorial"
  },
  {
    "locId": "L4186163",
    "country": "US",
    "region": "US-UT",
    "subregion": "US-UT-031",
    "lat": 38.2494376,
    "lng": -111.9721842,
    "name": "Angle"
  },
  {
    "locId": "L7479807",
    "country": "US",
    "region": "US-UT",
    "subregion": "US-UT-005",
    "lat": 41.6746236,
    "lng": -111.8403473,
    "name": "Anhder Park"
  },
  {
    "locId": "L2465614",
    "country": "US",
    "region": "US-UT",
    "subregion": "US-UT-041",
    "lat": 38.7085535,
    "lng": -112.0612335,
    "name": "Annabella"
  },
  {
    "locId": "L38799972",
    "country": "US",
    "region": "US-UT",
    "subregion": "US-UT-041",
    "lat": 38.7242866,
    "lng": -112.0801866,
    "name": "Annabella WMA"
  },
  {
    "locId": "L1225688",
    "country": "US",
    "region": "US-UT",
    "subregion": "US-UT-005",
    "lat": 41.5093998,
    "lng": -111.5726866,
    "name": "Ant Flat Rd"
  },
  {
    "locId": "L981860",
    "country": "US",
    "region": "US-UT",
    "subregion": "US-UT-011",
    "lat": 41.0892494,
    "lng": -112.0867252,
    "name": "Antelope Dr."
  },
  {
    "locId": "L17566850",
    "country": "US",
    "region": "US-UT",
    "subregion": "US-UT-009",
    "lat": 40.965182,
    "lng": -109.5527932,
    "name": "Antelope Flat Campground"
  },
  {
    "locId": "L190743",
    "country": "US",
    "region": "US-UT",
    "subregion": "US-UT-011",
    "lat": 41.0465405,
    "lng": -112.2383881,
    "name": "Antelope Island SP"
  },
  {
    "locId": "L571616",
    "country": "US",
    "region": "US-UT",
    "subregion": "US-UT-011",
    "lat": 40.9560485,
    "lng": -112.2040558,
    "name": "Antelope Island SP--Antelope Island (island only)"
  },
  {
    "locId": "L13245957",
    "country": "US",
    "region": "US-UT",
    "subregion": "US-UT-011",
    "lat": 41.0410704,
    "lng": -112.2565198,
    "name": "Antelope Island SP--Bridger Bay Campground"
  },
  {
    "locId": "L5518420",
    "country": "US",
    "region": "US-UT",
    "subregion": "US-UT-011",
    "lat": 41.0322548,
    "lng": -112.2615355,
    "name": "Antelope Island SP--Buffalo Point"
  },
  {
    "locId": "L151122",
    "country": "US",
    "region": "US-UT",
    "subregion": "US-UT-011",
    "lat": 41.08841,
    "lng": -112.186714,
    "name": "Antelope Island SP--Causeway"
  },
  {
    "locId": "L49740578",
    "country": "US",
    "region": "US-UT",
    "subregion": "US-UT-011",
    "lat": 40.9672036,
    "lng": -112.182387,
    "name": "Antelope Island SP--Frary Homesite"
  },
  {
    "locId": "L3485520",
    "country": "US",
    "region": "US-UT",
    "subregion": "US-UT-011",
    "lat": 40.9579282,
    "lng": -112.2175741,
    "name": "Antelope Island SP--Frary Peak Trail"
  },
  {
    "locId": "L212071",
    "country": "US",
    "region": "US-UT",
    "subregion": "US-UT-011",
    "lat": 40.9234737,
    "lng": -112.1680972,
    "name": "Antelope Island SP--Garr Ranch"
  },
  {
    "locId": "L3112862",
    "country": "US",
    "region": "US-UT",
    "subregion": "US-UT-011",
    "lat": 41.058608,
    "lng": -112.2512646,
    "name": "Antelope Island SP--Lady Finger Point"
  },
  {
    "locId": "L1422055",
    "country": "US",
    "region": "US-UT",
    "subregion": "US-UT-011",
    "lat": 41.0614917,
    "lng": -112.2390532,
    "name": "Antelope Island SP--Marina"
  },
  {
    "locId": "L49740901",
    "country": "US",
    "region": "US-UT",
    "subregion": "US-UT-011",
    "lat": 40.9503265,
    "lng": -112.1804939,
    "name": "Antelope Island SP--Mulberry Grove"
  },
  {
    "locId": "L1210095",
    "country": "US",
    "region": "US-UT",
    "subregion": "US-UT-011",
    "lat": 40.9836063,
    "lng": -112.1903591,
    "name": "Antelope Island SP--Road to Garr Ranch"
  },
  {
    "locId": "L1210097",
    "country": "US",
    "region": "US-UT",
    "subregion": "US-UT-011",
    "lat": 40.8968335,
    "lng": -112.17326,
    "name": "Antelope Island SP--South"
  },
  {
    "locId": "L1210098",
    "country": "US",
    "region": "US-UT",
    "subregion": "US-UT-011",
    "lat": 41.054726,
    "lng": -112.2407765,
    "name": "Antelope Island SP--Visitor Center & Loop Rd."
  },
  {
    "locId": "L1405322",
    "country": "US",
    "region": "US-UT",
    "subregion": "US-UT-011",
    "lat": 41.0276519,
    "lng": -112.2504556,
    "name": "Antelope Island SP--White Rock Bay & Corrals"
  },
  {
    "locId": "L3055038",
    "country": "US",
    "region": "US-UT",
    "subregion": "US-UT-027",
    "lat": 38.6550113,
    "lng": -112.87184,
    "name": "Antelope Spring (Millard Co)"
  },
  {
    "locId": "L3698262",
    "country": "US",
    "region": "US-UT",
    "subregion": "US-UT-021",
    "lat": 37.7936003,
    "lng": -113.4304905,
    "name": "Antelope Springs Rd."
  },
  {
    "locId": "L5143941",
    "country": "US",
    "region": "US-UT",
    "subregion": "US-UT-017",
    "lat": 38.0901207,
    "lng": -111.9814539,
    "name": "Antimony Fields (Garfield Co.)"
  },
  {
    "locId": "L5143949",
    "country": "US",
    "region": "US-UT",
    "subregion": "US-UT-031",
    "lat": 38.1490025,
    "lng": -112.0005941,
    "name": "Antimony Fields (Piute Co.)"
  },
  {
    "locId": "L1584684",
    "country": "US",
    "region": "US-UT",
    "subregion": "US-UT-053",
    "lat": 37.1207379,
    "lng": -113.7772204,
    "name": "Apex Mine Rd"
  },
  {
    "locId": "L6046712",
    "country": "US",
    "region": "US-UT",
    "subregion": "US-UT-037",
    "lat": 37.5459384,
    "lng": -109.6666861,
    "name": "Arch Canyon"
  },
  {
    "locId": "L326137",
    "country": "US",
    "region": "US-UT",
    "subregion": "US-UT-019",
    "lat": 38.6748562,
    "lng": -109.5874214,
    "name": "Arches NP"
  },
  {
    "locId": "L1542608",
    "country": "US",
    "region": "US-UT",
    "subregion": "US-UT-019",
    "lat": 38.7016981,
    "lng": -109.566196,
    "name": "Arches NP--Balanced Rock"
  },
  {
    "locId": "L2889348",
    "country": "US",
    "region": "US-UT",
    "subregion": "US-UT-019",
    "lat": 38.7730231,
    "lng": -109.5802546,
    "name": "Arches NP--Broken Arch Trail"
  },
  {
    "locId": "L2887210",
    "country": "US",
    "region": "US-UT",
    "subregion": "US-UT-019",
    "lat": 38.648383,
    "lng": -109.5998454,
    "name": "Arches NP--Courthouse Wash"
  },
  {
    "locId": "L4680693",
    "country": "US",
    "region": "US-UT",
    "subregion": "US-UT-019",
    "lat": 38.7293803,
    "lng": -109.5346141,
    "name": "Arches NP--Delicate Arch Rd."
  },
  {
    "locId": "L7692624",
    "country": "US",
    "region": "US-UT",
    "subregion": "US-UT-019",
    "lat": 38.7395571,
    "lng": -109.5121694,
    "name": "Arches NP--Delicate Arch Trail"
  },
  {
    "locId": "L1542612",
    "country": "US",
    "region": "US-UT",
    "subregion": "US-UT-019",
    "lat": 38.735172,
    "lng": -109.5195088,
    "name": "Arches NP--Delicate Arch Trailhead"
  },
  {
    "locId": "L2484321",
    "country": "US",
    "region": "US-UT",
    "subregion": "US-UT-019",
    "lat": 38.7341676,
    "lng": -109.5014942,
    "name": "Arches NP--Delicate Arch Viewpoint"
  },
  {
    "locId": "L7703997",
    "country": "US",
    "region": "US-UT",
    "subregion": "US-UT-019",
    "lat": 38.7791818,
    "lng": -109.5897898,
    "name": "Arches NP--Devil's Garden CG"
  },
  {
    "locId": "L1108726",
    "country": "US",
    "region": "US-UT",
    "subregion": "US-UT-019",
    "lat": 38.7862714,
    "lng": -109.5972919,
    "name": "Arches NP--Devil's Garden Trail"
  },
  {
    "locId": "L4692038",
    "country": "US",
    "region": "US-UT",
    "subregion": "US-UT-019",
    "lat": 38.7434902,
    "lng": -109.5614871,
    "name": "Arches NP--Fiery Furnace Trail"
  },
  {
    "locId": "L9728004",
    "country": "US",
    "region": "US-UT",
    "subregion": "US-UT-019",
    "lat": 38.6978875,
    "lng": -109.5495541,
    "name": "Arches NP--Garden of Eden"
  },
  {
    "locId": "L1542599",
    "country": "US",
    "region": "US-UT",
    "subregion": "US-UT-019",
    "lat": 38.6243384,
    "lng": -109.5994482,
    "name": "Arches NP--Park Avenue"
  },
  {
    "locId": "L7704036",
    "country": "US",
    "region": "US-UT",
    "subregion": "US-UT-019",
    "lat": 38.7559276,
    "lng": -109.6016849,
    "name": "Arches NP--Salt Valley"
  },
  {
    "locId": "L30640416",
    "country": "US",
    "region": "US-UT",
    "subregion": "US-UT-019",
    "lat": 38.7643235,
    "lng": -109.5811558,
    "name": "Arches NP--Sand Dune Arch"
  },
  {
    "locId": "L1859594",
    "country": "US",
    "region": "US-UT",
    "subregion": "US-UT-019",
    "lat": 38.7924359,
    "lng": -109.6749586,
    "name": "Arches NP--Tower Arch Trail"
  },
  {
    "locId": "L30797617",
    "country": "US",
    "region": "US-UT",
    "subregion": "US-UT-019",
    "lat": 38.6163247,
    "lng": -109.620318,
    "name": "Arches NP--Vistor Center"
  },
  {
    "locId": "L1404585",
    "country": "US",
    "region": "US-UT",
    "subregion": "US-UT-019",
    "lat": 38.6876374,
    "lng": -109.5376193,
    "name": "Arches NP--Windows Trail"
  },
  {
    "locId": "L2247280",
    "country": "US",
    "region": "US-UT",
    "subregion": "US-UT-017",
    "lat": 37.7835615,
    "lng": -112.3319864,
    "name": "Arches Trail"
  },
  {
    "locId": "L10313800",
    "country": "US",
    "region": "US-UT",
    "subregion": "US-UT-035",
    "lat": 40.5000105,
    "lng": -111.9289631,
    "name": "Arrow Trailhead to Galena Soo'nkahni Preserve"
  },
  {
    "locId": "L1228463",
    "country": "US",
    "region": "US-UT",
    "subregion": "US-UT-049",
    "lat": 40.3992972,
    "lng": -111.7816401,
    "name": "Art Dye Park & Fox Hollow GC"
  },
  {
    "locId": "L15400142",
    "country": "US",
    "region": "US-UT",
    "subregion": "US-UT-057",
    "lat": 41.2336506,
    "lng": -111.8208955,
    "name": "Art Nord Trailhead"
  },
  {
    "locId": "L1447599",
    "country": "US",
    "region": "US-UT",
    "subregion": "US-UT-053",
    "lat": 37.4154762,
    "lng": -113.238547,
    "name": "Ash Creek Reservoir"
  },
  {
    "locId": "L47872943",
    "country": "US",
    "region": "US-UT",
    "subregion": "US-UT-047",
    "lat": 40.7796397,
    "lng": -109.5527831,
    "name": "Ashley NF--East Park Reservoir"
  },
  {
    "locId": "L47873655",
    "country": "US",
    "region": "US-UT",
    "subregion": "US-UT-047",
    "lat": 40.714518,
    "lng": -109.532022,
    "name": "Ashley NF--Kane Hollow"
  },
  {
    "locId": "L36212047",
    "country": "US",
    "region": "US-UT",
    "subregion": "US-UT-013",
    "lat": 40.702633,
    "lng": -110.245244,
    "name": "Ashley NF--Lower Chain Lake"
  },
  {
    "locId": "L36211517",
    "country": "US",
    "region": "US-UT",
    "subregion": "US-UT-013",
    "lat": 40.671625,
    "lng": -110.186156,
    "name": "Ashley NF--Sheep Bridge"
  },
  {
    "locId": "L36213057",
    "country": "US",
    "region": "US-UT",
    "subregion": "US-UT-013",
    "lat": 40.781244,
    "lng": -110.360201,
    "name": "Ashley NF--Uinta Highline Trail--Lower Cirque at Anderson Pass"
  },
  {
    "locId": "L36225184",
    "country": "US",
    "region": "US-UT",
    "subregion": "US-UT-013",
    "lat": 40.786136,
    "lng": -110.374394,
    "name": "Ashley NF--Uinta Highline Trail--Upper Cirque at Anderson Pass"
  },
  {
    "locId": "L36224016",
    "country": "US",
    "region": "US-UT",
    "subregion": "US-UT-013",
    "lat": 40.757355,
    "lng": -110.195963,
    "name": "Ashley NF--Uinta River Trail--Shale Creek Bridge"
  },
  {
    "locId": "L36211007",
    "country": "US",
    "region": "US-UT",
    "subregion": "US-UT-013",
    "lat": 40.631188,
    "lng": -110.153815,
    "name": "Ashley NF--Uinta River Trailhead"
  },
  {
    "locId": "L36212102",
    "country": "US",
    "region": "US-UT",
    "subregion": "US-UT-013",
    "lat": 40.71139,
    "lng": -110.256431,
    "name": "Ashley NF--Upper Chain Lake"
  },
  {
    "locId": "L36225212",
    "country": "US",
    "region": "US-UT",
    "subregion": "US-UT-013",
    "lat": 40.779043,
    "lng": -110.372872,
    "name": "Ashley NF\u2014Kings Peak\u2014Summit and upper boulder fields"
  },
  {
    "locId": "L2234396",
    "country": "US",
    "region": "US-UT",
    "subregion": "US-UT-047",
    "lat": 40.4783576,
    "lng": -109.5666933,
    "name": "Ashley Nature Park"
  },
  {
    "locId": "L15407710",
    "country": "US",
    "region": "US-UT",
    "subregion": "US-UT-025",
    "lat": 37.521599,
    "lng": -112.673866,
    "name": "Aspen-Mirror Lake"
  },
  {
    "locId": "L35596350",
    "country": "US",
    "region": "US-UT",
    "subregion": "US-UT-053",
    "lat": 37.195743,
    "lng": -113.163644,
    "name": "Autocamp Zion (restricted access)"
  },
  {
    "locId": "L552807",
    "country": "US",
    "region": "US-UT",
    "subregion": "US-UT-005",
    "lat": 41.5260577,
    "lng": -111.8142128,
    "name": "Avon"
  },
  {
    "locId": "L5269657",
    "country": "US",
    "region": "US-UT",
    "subregion": "US-UT-057",
    "lat": 41.3867263,
    "lng": -111.8634367,
    "name": "Avon Pass Rd (Weber Co.)"
  },
  {
    "locId": "L1411954",
    "country": "US",
    "region": "US-UT",
    "subregion": "US-UT-035",
    "lat": 40.6006642,
    "lng": -111.795974,
    "name": "Bair Park"
  },
  {
    "locId": "L6515833",
    "country": "US",
    "region": "US-UT",
    "subregion": "US-UT-053",
    "lat": 37.3788879,
    "lng": -113.6374283,
    "name": "Baker Reservoir"
  },
  {
    "locId": "L982456",
    "country": "US",
    "region": "US-UT",
    "subregion": "US-UT-043",
    "lat": 40.8749104,
    "lng": -110.4962415,
    "name": "Bald Mountain Trail (N. Slope Uintas)"
  },
  {
    "locId": "L690226",
    "country": "US",
    "region": "US-UT",
    "subregion": "US-UT-005",
    "lat": 41.6986554,
    "lng": -111.8336213,
    "name": "Ballard Springs"
  },
  {
    "locId": "L7087155",
    "country": "US",
    "region": "US-UT",
    "subregion": "US-UT-019",
    "lat": 38.6549184,
    "lng": -109.6646154,
    "name": "Bar M Trails"
  },
  {
    "locId": "L7605071",
    "country": "US",
    "region": "US-UT",
    "subregion": "US-UT-043",
    "lat": 41.122406,
    "lng": -111.05666,
    "name": "Barker Reservoir"
  },
  {
    "locId": "L3751523",
    "country": "US",
    "region": "US-UT",
    "subregion": "US-UT-049",
    "lat": 40.14927,
    "lng": -111.5578,
    "name": "Bartholomew Park"
  },
  {
    "locId": "L46909482",
    "country": "US",
    "region": "US-UT",
    "subregion": "US-UT-037",
    "lat": 38.47403,
    "lng": -109.6544568,
    "name": "Base Camp Adventure Lodge"
  },
  {
    "locId": "L1897328",
    "country": "US",
    "region": "US-UT",
    "subregion": "US-UT-045",
    "lat": 40.6235449,
    "lng": -112.3116123,
    "name": "Bate's Canyon Rd"
  },
  {
    "locId": "L807152",
    "country": "US",
    "region": "US-UT",
    "subregion": "US-UT-049",
    "lat": 40.3657081,
    "lng": -111.6981268,
    "name": "Battle Creek Canyon"
  },
  {
    "locId": "L11916160",
    "country": "US",
    "region": "US-UT",
    "subregion": "US-UT-035",
    "lat": 40.5221836,
    "lng": -111.833396,
    "name": "Bear Canyon Suspension Bridge TH"
  },
  {
    "locId": "L1586372",
    "country": "US",
    "region": "US-UT",
    "subregion": "US-UT-043",
    "lat": 40.6977863,
    "lng": -111.5608154,
    "name": "Bear Hollow--Rob's Trail"
  },
  {
    "locId": "L977704",
    "country": "US",
    "region": "US-UT",
    "subregion": "US-UT-033",
    "lat": 41.9213431,
    "lng": -111.4575595,
    "name": "Bear Lake Overlook Rest Area"
  },
  {
    "locId": "L6050813",
    "country": "US",
    "region": "US-UT",
    "subregion": "US-UT-033",
    "lat": 41.8565368,
    "lng": -111.3635963,
    "name": "Bear Lake--Cheney Creek Rest Stop"
  },
  {
    "locId": "L2988735",
    "country": "US",
    "region": "US-UT",
    "subregion": "US-UT-033",
    "lat": 41.8751851,
    "lng": -111.2951088,
    "name": "Bear Lake--East Shoreline"
  },
  {
    "locId": "L458030",
    "country": "US",
    "region": "US-UT",
    "subregion": "US-UT-033",
    "lat": 41.9652341,
    "lng": -111.3955307,
    "name": "Bear Lake--Marina"
  },
  {
    "locId": "L504729",
    "country": "US",
    "region": "US-UT",
    "subregion": "US-UT-033",
    "lat": 41.8458439,
    "lng": -111.3403845,
    "name": "Bear Lake--Rendezvous Beach SP"
  },
  {
    "locId": "L475288",
    "country": "US",
    "region": "US-UT",
    "subregion": "US-UT-033",
    "lat": 41.8910327,
    "lng": -111.3670349,
    "name": "Bear Lake--Southwest Shoreline"
  },
  {
    "locId": "L1218725",
    "country": "US",
    "region": "US-UT",
    "subregion": "US-UT-033",
    "lat": 41.9789538,
    "lng": -111.4041138,
    "name": "Bear Lake--West Shoreline"
  },
  {
    "locId": "L604485",
    "country": "US",
    "region": "US-UT",
    "subregion": "US-UT-003",
    "lat": 41.45302,
    "lng": -112.3921967,
    "name": "Bear River Bay"
  },
  {
    "locId": "L452512",
    "country": "US",
    "region": "US-UT",
    "subregion": "US-UT-003",
    "lat": 41.5097222,
    "lng": -112.235,
    "name": "Bear River Hunting Club"
  },
  {
    "locId": "L164961",
    "country": "US",
    "region": "US-UT",
    "subregion": "US-UT-003",
    "lat": 41.4692291,
    "lng": -112.2947788,
    "name": "Bear River MBR--Auto Tour Loop"
  },
  {
    "locId": "L770875",
    "country": "US",
    "region": "US-UT",
    "subregion": "US-UT-003",
    "lat": 41.5076774,
    "lng": -112.068851,
    "name": "Bear River MBR--Visitor Center"
  },
  {
    "locId": "L3591669",
    "country": "US",
    "region": "US-UT",
    "subregion": "US-UT-003",
    "lat": 41.5156471,
    "lng": -112.103194,
    "name": "Bear River MBR--Yates Tract (permit required)"
  },
  {
    "locId": "L505620",
    "country": "US",
    "region": "US-UT",
    "subregion": "US-UT-033",
    "lat": 41.6956433,
    "lng": -111.1140114,
    "name": "Bear River Meadows--Crawford Mountain Rd."
  },
  {
    "locId": "L1512156",
    "country": "US",
    "region": "US-UT",
    "subregion": "US-UT-005",
    "lat": 41.8340339,
    "lng": -111.8933629,
    "name": "Bear River--2400 W Bridge"
  },
  {
    "locId": "L759452",
    "country": "US",
    "region": "US-UT",
    "subregion": "US-UT-005",
    "lat": 41.800982,
    "lng": -111.9097806,
    "name": "Bear River--3800 N Bridge"
  },
  {
    "locId": "L3446190",
    "country": "US",
    "region": "US-UT",
    "subregion": "US-UT-003",
    "lat": 41.5321619,
    "lng": -112.0797515,
    "name": "Bear River--Horseshoe Sloughs"
  },
  {
    "locId": "L1157826",
    "country": "US",
    "region": "US-UT",
    "subregion": "US-UT-005",
    "lat": 41.8055657,
    "lng": -111.9265652,
    "name": "Bear River--Lower Outlook"
  },
  {
    "locId": "L678803",
    "country": "US",
    "region": "US-UT",
    "subregion": "US-UT-005",
    "lat": 41.7861021,
    "lng": -111.9171479,
    "name": "Bear River--Oxbow 3000 N/Black Rock Rd."
  },
  {
    "locId": "L1526849",
    "country": "US",
    "region": "US-UT",
    "subregion": "US-UT-005",
    "lat": 41.9179664,
    "lng": -111.9013516,
    "name": "Bear River--SR142 Trenton Bridge"
  },
  {
    "locId": "L1827409",
    "country": "US",
    "region": "US-UT",
    "subregion": "US-UT-003",
    "lat": 41.786449,
    "lng": -112.1061021,
    "name": "Bear River--SR30 Hampton Crossing"
  },
  {
    "locId": "L1813537",
    "country": "US",
    "region": "US-UT",
    "subregion": "US-UT-005",
    "lat": 41.975436,
    "lng": -111.9362849,
    "name": "Bear River--SR61 Cornish Bridge"
  },
  {
    "locId": "L6021140",
    "country": "US",
    "region": "US-UT",
    "subregion": "US-UT-037",
    "lat": 37.629669,
    "lng": -109.867749,
    "name": "Bears Ears National Monument--The Bears Ears"
  },
  {
    "locId": "L1595688",
    "country": "US",
    "region": "US-UT",
    "subregion": "US-UT-001",
    "lat": 38.2769488,
    "lng": -112.636844,
    "name": "Beaver (town)"
  },
  {
    "locId": "L4706234",
    "country": "US",
    "region": "US-UT",
    "subregion": "US-UT-019",
    "lat": 38.5361213,
    "lng": -109.212513,
    "name": "Beaver Basin"
  },
  {
    "locId": "L507790",
    "country": "US",
    "region": "US-UT",
    "subregion": "US-UT-001",
    "lat": 38.2949216,
    "lng": -112.4394894,
    "name": "Beaver Canyon "
  },
  {
    "locId": "L427635",
    "country": "US",
    "region": "US-UT",
    "subregion": "US-UT-001",
    "lat": 38.2522011,
    "lng": -112.5340748,
    "name": "Beaver Canyon--Lower (up to S curve)"
  },
  {
    "locId": "L30834915",
    "country": "US",
    "region": "US-UT",
    "subregion": "US-UT-001",
    "lat": 38.21744,
    "lng": -112.896014,
    "name": "Beaver County Fairgrounds"
  },
  {
    "locId": "L5827288",
    "country": "US",
    "region": "US-UT",
    "subregion": "US-UT-053",
    "lat": 37.074046,
    "lng": -113.833271,
    "name": "Beaver Dam Mtns--Gravel Pit Rd"
  },
  {
    "locId": "L49253784",
    "country": "US",
    "region": "US-UT",
    "subregion": "US-UT-039",
    "lat": 39.654841,
    "lng": -111.296459,
    "name": "Beaver Dam Reservoir"
  },
  {
    "locId": "L387458",
    "country": "US",
    "region": "US-UT",
    "subregion": "US-UT-053",
    "lat": 37.1070121,
    "lng": -113.9810085,
    "name": "Beaver Dam Slope (incl. Lytle Ranch Rd)"
  },
  {
    "locId": "L5617328",
    "country": "US",
    "region": "US-UT",
    "subregion": "US-UT-053",
    "lat": 37.0222226,
    "lng": -113.8763809,
    "name": "Beaver Dam Slope--East of Hwy 91"
  },
  {
    "locId": "L1036624",
    "country": "US",
    "region": "US-UT",
    "subregion": "US-UT-005",
    "lat": 41.9682974,
    "lng": -111.5409279,
    "name": "Beaver Mountain Ski Area"
  },
  {
    "locId": "L1446177",
    "country": "US",
    "region": "US-UT",
    "subregion": "US-UT-037",
    "lat": 37.9915131,
    "lng": -109.8719937,
    "name": "Beef Basin"
  },
  {
    "locId": "L2818011",
    "country": "US",
    "region": "US-UT",
    "subregion": "US-UT-035",
    "lat": 40.5439065,
    "lng": -111.8356061,
    "name": "Bell Canyon Gulley"
  },
  {
    "locId": "L598472",
    "country": "US",
    "region": "US-UT",
    "subregion": "US-UT-035",
    "lat": 40.5649541,
    "lng": -111.7948151,
    "name": "Bells Canyon--Reservoir"
  },
  {
    "locId": "L1507573",
    "country": "US",
    "region": "US-UT",
    "subregion": "US-UT-035",
    "lat": 40.5620215,
    "lng": -111.7800825,
    "name": "Bells Canyon--Upper"
  },
  {
    "locId": "L29487889",
    "country": "US",
    "region": "US-UT",
    "subregion": "US-UT-025",
    "lat": 37.211495,
    "lng": -112.685306,
    "name": "Belly of the Dragon Trail"
  },
  {
    "locId": "L1597442",
    "country": "US",
    "region": "US-UT",
    "subregion": "US-UT-035",
    "lat": 40.6950793,
    "lng": -111.8676679,
    "name": "Ben Franklin Park"
  },
  {
    "locId": "L6672981",
    "country": "US",
    "region": "US-UT",
    "subregion": "US-UT-057",
    "lat": 41.286331,
    "lng": -111.986475,
    "name": "Ben Lomond GC"
  },
  {
    "locId": "L1002082",
    "country": "US",
    "region": "US-UT",
    "subregion": "US-UT-003",
    "lat": 41.3896884,
    "lng": -111.9839859,
    "name": "Ben Lomond Peak & Willard Basin Area"
  },
  {
    "locId": "L729328",
    "country": "US",
    "region": "US-UT",
    "subregion": "US-UT-049",
    "lat": 40.113822,
    "lng": -111.7716837,
    "name": "Benjamin Slough"
  },
  {
    "locId": "L165064",
    "country": "US",
    "region": "US-UT",
    "subregion": "US-UT-005",
    "lat": 41.787153,
    "lng": -111.9525719,
    "name": "Benson Marina"
  },
  {
    "locId": "L1560543",
    "country": "US",
    "region": "US-UT",
    "subregion": "US-UT-005",
    "lat": 41.781617,
    "lng": -111.9431734,
    "name": "Benson RR Trail"
  },
  {
    "locId": "L1463408",
    "country": "US",
    "region": "US-UT",
    "subregion": "US-UT-005",
    "lat": 41.7905288,
    "lng": -111.9119525,
    "name": "Benson Water Trough Ponds"
  },
  {
    "locId": "L15467361",
    "country": "US",
    "region": "US-UT",
    "subregion": "US-UT-005",
    "lat": 41.753769,
    "lng": -111.9116,
    "name": "Benson--N 3200 W"
  },
  {
    "locId": "L1575323",
    "country": "US",
    "region": "US-UT",
    "subregion": "US-UT-021",
    "lat": 37.8921967,
    "lng": -113.6625764,
    "name": "Beryl (town)"
  },
  {
    "locId": "L493816",
    "country": "US",
    "region": "US-UT",
    "subregion": "US-UT-021",
    "lat": 37.7095598,
    "lng": -113.6562252,
    "name": "Beryl Junction"
  },
  {
    "locId": "L22176150",
    "country": "US",
    "region": "US-UT",
    "subregion": "US-UT-021",
    "lat": 37.6557901,
    "lng": -113.6612395,
    "name": "Beryl Junction--South Fields"
  },
  {
    "locId": "L342160",
    "country": "US",
    "region": "US-UT",
    "subregion": "US-UT-057",
    "lat": 41.18395,
    "lng": -111.9386694,
    "name": "Beus Pond & Beus Forest Green Park"
  },
  {
    "locId": "L3617280",
    "country": "US",
    "region": "US-UT",
    "subregion": "US-UT-021",
    "lat": 37.6911684,
    "lng": -113.0698299,
    "name": "Bicentennial Park"
  },
  {
    "locId": "L827738",
    "country": "US",
    "region": "US-UT",
    "subregion": "US-UT-049",
    "lat": 40.2138335,
    "lng": -111.6307926,
    "name": "Bicentennial Park"
  },
  {
    "locId": "L988303",
    "country": "US",
    "region": "US-UT",
    "subregion": "US-UT-055",
    "lat": 38.3098746,
    "lng": -111.5516138,
    "name": "Bicknell Bottoms--400 W"
  },
  {
    "locId": "L503369",
    "country": "US",
    "region": "US-UT",
    "subregion": "US-UT-055",
    "lat": 38.305363,
    "lng": -111.5303236,
    "name": "Bicknell Bottoms--Bicknell Circle Rd."
  },
  {
    "locId": "L5817315",
    "country": "US",
    "region": "US-UT",
    "subregion": "US-UT-055",
    "lat": 38.291208,
    "lng": -111.56218,
    "name": "Bicknell Bottoms--Posey Lake Rd."
  },
  {
    "locId": "L985781",
    "country": "US",
    "region": "US-UT",
    "subregion": "US-UT-055",
    "lat": 38.3066081,
    "lng": -111.51299,
    "name": "Bicknell Bottoms--Riparian along Hwy 24"
  },
  {
    "locId": "L46881969",
    "country": "US",
    "region": "US-UT",
    "subregion": "US-UT-019",
    "lat": 38.6489779,
    "lng": -109.4796717,
    "name": "Big Bend Campground"
  },
  {
    "locId": "L19979061",
    "country": "US",
    "region": "US-UT",
    "subregion": "US-UT-035",
    "lat": 40.6435475,
    "lng": -111.6384661,
    "name": "Big Cottonwood Canyon"
  },
  {
    "locId": "L12177886",
    "country": "US",
    "region": "US-UT",
    "subregion": "US-UT-035",
    "lat": 40.648566,
    "lng": -111.608289,
    "name": "Big Cottonwood Canyon--Beartrap Fork to Desolation Lake"
  },
  {
    "locId": "L1405485",
    "country": "US",
    "region": "US-UT",
    "subregion": "US-UT-035",
    "lat": 40.5995375,
    "lng": -111.5822537,
    "name": "Big Cottonwood Canyon--Brighton Loop Rd."
  },
  {
    "locId": "L1553329",
    "country": "US",
    "region": "US-UT",
    "subregion": "US-UT-035",
    "lat": 40.5928371,
    "lng": -111.5752888,
    "name": "Big Cottonwood Canyon--Brighton Ski Resort"
  },
  {
    "locId": "L354335",
    "country": "US",
    "region": "US-UT",
    "subregion": "US-UT-035",
    "lat": 40.6018575,
    "lng": -111.5858888,
    "name": "Big Cottonwood Canyon--Brighton to Twin Lakes Hike"
  },
  {
    "locId": "L2267794",
    "country": "US",
    "region": "US-UT",
    "subregion": "US-UT-035",
    "lat": 40.6168453,
    "lng": -111.7199922,
    "name": "Big Cottonwood Canyon--Broads Fork"
  },
  {
    "locId": "L6424608",
    "country": "US",
    "region": "US-UT",
    "subregion": "US-UT-035",
    "lat": 40.662357,
    "lng": -111.688203,
    "name": "Big Cottonwood Canyon--Butler Fork/Mill A Basin"
  },
  {
    "locId": "L1646799",
    "country": "US",
    "region": "US-UT",
    "subregion": "US-UT-035",
    "lat": 40.6301954,
    "lng": -111.654587,
    "name": "Big Cottonwood Canyon--Donut Falls"
  },
  {
    "locId": "L456935",
    "country": "US",
    "region": "US-UT",
    "subregion": "US-UT-035",
    "lat": 40.606846,
    "lng": -111.555342,
    "name": "Big Cottonwood Canyon--Guardsman Pass & Jupiter Peak Area"
  },
  {
    "locId": "L4746033",
    "country": "US",
    "region": "US-UT",
    "subregion": "US-UT-035",
    "lat": 40.6113462,
    "lng": -111.5677071,
    "name": "Big Cottonwood Canyon--Guardsman Pass Rd."
  },
  {
    "locId": "L20517038",
    "country": "US",
    "region": "US-UT",
    "subregion": "US-UT-035",
    "lat": 40.6450894,
    "lng": -111.6477871,
    "name": "Big Cottonwood Canyon--Jordan Pines CG"
  },
  {
    "locId": "L35621348",
    "country": "US",
    "region": "US-UT",
    "subregion": "US-UT-035",
    "lat": 40.6072898,
    "lng": -111.6915753,
    "name": "Big Cottonwood Canyon--Lake Blanche"
  },
  {
    "locId": "L1546926",
    "country": "US",
    "region": "US-UT",
    "subregion": "US-UT-035",
    "lat": 40.623453,
    "lng": -111.7114525,
    "name": "Big Cottonwood Canyon--Lake Blanche/Mill B South Hike"
  },
  {
    "locId": "L15669682",
    "country": "US",
    "region": "US-UT",
    "subregion": "US-UT-035",
    "lat": 40.5891488,
    "lng": -111.5884084,
    "name": "Big Cottonwood Canyon--Lake Mary"
  },
  {
    "locId": "L1601321",
    "country": "US",
    "region": "US-UT",
    "subregion": "US-UT-035",
    "lat": 40.5916267,
    "lng": -111.5814715,
    "name": "Big Cottonwood Canyon--Lake Mary Trail"
  },
  {
    "locId": "L2363521",
    "country": "US",
    "region": "US-UT",
    "subregion": "US-UT-035",
    "lat": 40.6233667,
    "lng": -111.7638999,
    "name": "Big Cottonwood Canyon--Ledgemere Picnic Area"
  },
  {
    "locId": "L20168159",
    "country": "US",
    "region": "US-UT",
    "subregion": "US-UT-035",
    "lat": 40.637587,
    "lng": -111.720974,
    "name": "Big Cottonwood Canyon--Mill B North Fork Trail"
  },
  {
    "locId": "L1110100",
    "country": "US",
    "region": "US-UT",
    "subregion": "US-UT-035",
    "lat": 40.6557039,
    "lng": -111.6337109,
    "name": "Big Cottonwood Canyon--Mill D North (Dog Lake Hike)"
  },
  {
    "locId": "L19983329",
    "country": "US",
    "region": "US-UT",
    "subregion": "US-UT-035",
    "lat": 40.625647,
    "lng": -111.691986,
    "name": "Big Cottonwood Canyon--Mineral Fork Trail"
  },
  {
    "locId": "L26237666",
    "country": "US",
    "region": "US-UT",
    "subregion": "US-UT-035",
    "lat": 40.634317,
    "lng": -111.711488,
    "name": "Big Cottonwood Canyon--Moss Ledge Waterfall"
  },
  {
    "locId": "L269919",
    "country": "US",
    "region": "US-UT",
    "subregion": "US-UT-035",
    "lat": 40.6189212,
    "lng": -111.7777895,
    "name": "Big Cottonwood Canyon--Mouth"
  },
  {
    "locId": "L17034727",
    "country": "US",
    "region": "US-UT",
    "subregion": "US-UT-035",
    "lat": 40.630517,
    "lng": -111.746497,
    "name": "Big Cottonwood Canyon--Mule Hollow Trail"
  },
  {
    "locId": "L25992932",
    "country": "US",
    "region": "US-UT",
    "subregion": "US-UT-035",
    "lat": 40.6132103,
    "lng": -111.5896277,
    "name": "Big Cottonwood Canyon--Redman CG, Utah, US"
  },
  {
    "locId": "L1545609",
    "country": "US",
    "region": "US-UT",
    "subregion": "US-UT-035",
    "lat": 40.6041979,
    "lng": -111.5884771,
    "name": "Big Cottonwood Canyon--Silver Lake"
  },
  {
    "locId": "L739849",
    "country": "US",
    "region": "US-UT",
    "subregion": "US-UT-035",
    "lat": 40.6100397,
    "lng": -111.5959064,
    "name": "Big Cottonwood Canyon--Silver Lake to Lake Solitude Hike"
  },
  {
    "locId": "L2689985",
    "country": "US",
    "region": "US-UT",
    "subregion": "US-UT-035",
    "lat": 40.6211191,
    "lng": -111.595602,
    "name": "Big Cottonwood Canyon--Solitude Ski Resort"
  },
  {
    "locId": "L737036",
    "country": "US",
    "region": "US-UT",
    "subregion": "US-UT-035",
    "lat": 40.64154,
    "lng": -111.6372943,
    "name": "Big Cottonwood Canyon--Spruces CG"
  },
  {
    "locId": "L9507671",
    "country": "US",
    "region": "US-UT",
    "subregion": "US-UT-035",
    "lat": 40.6245211,
    "lng": -111.743689,
    "name": "Big Cottonwood Canyon--Storm Mountain Picnic Area"
  },
  {
    "locId": "L2216182",
    "country": "US",
    "region": "US-UT",
    "subregion": "US-UT-035",
    "lat": 40.5992192,
    "lng": -111.6006875,
    "name": "Big Cottonwood Canyon--Twin Lakes to Lake Solitude"
  },
  {
    "locId": "L1545612",
    "country": "US",
    "region": "US-UT",
    "subregion": "US-UT-035",
    "lat": 40.6341226,
    "lng": -111.6013117,
    "name": "Big Cottonwood Canyon--Willow Heights"
  },
  {
    "locId": "L1426627",
    "country": "US",
    "region": "US-UT",
    "subregion": "US-UT-035",
    "lat": 40.6711287,
    "lng": -111.8480671,
    "name": "Big Cottonwood Park"
  },
  {
    "locId": "L4116189",
    "country": "US",
    "region": "US-UT",
    "subregion": "US-UT-035",
    "lat": 40.6772816,
    "lng": -111.8558596,
    "name": "Big Cottonwood Regional Park--Softball Complex"
  },
  {
    "locId": "L2258883",
    "country": "US",
    "region": "US-UT",
    "subregion": "US-UT-001",
    "lat": 38.3461451,
    "lng": -112.4007583,
    "name": "Big John Flat"
  },
  {
    "locId": "L461418",
    "country": "US",
    "region": "US-UT",
    "subregion": "US-UT-029",
    "lat": 40.828586,
    "lng": -111.653401,
    "name": "Big Mountain Pass (Morgan Co.)"
  },
  {
    "locId": "L3501564",
    "country": "US",
    "region": "US-UT",
    "subregion": "US-UT-035",
    "lat": 40.8276199,
    "lng": -111.6545302,
    "name": "Big Mountain Pass (Salt Lake Co.)"
  },
  {
    "locId": "L12320534",
    "country": "US",
    "region": "US-UT",
    "subregion": "US-UT-035",
    "lat": 40.8451367,
    "lng": -111.6621703,
    "name": "Big Mountain Summit"
  },
  {
    "locId": "L5481968",
    "country": "US",
    "region": "US-UT",
    "subregion": "US-UT-055",
    "lat": 38.3602171,
    "lng": -111.6065615,
    "name": "Big Rocks Rd.--Fremont River Marsh"
  },
  {
    "locId": "L632008",
    "country": "US",
    "region": "US-UT",
    "subregion": "US-UT-013",
    "lat": 40.2970721,
    "lng": -110.2333832,
    "name": "Big Sand Wash Reservoir"
  },
  {
    "locId": "L2972370",
    "country": "US",
    "region": "US-UT",
    "subregion": "US-UT-033",
    "lat": 41.3912982,
    "lng": -111.4629936,
    "name": "Big Spring Road"
  },
  {
    "locId": "L8066715",
    "country": "US",
    "region": "US-UT",
    "subregion": "US-UT-025",
    "lat": 37.081932,
    "lng": -111.661443,
    "name": "Big Water"
  },
  {
    "locId": "L3496598",
    "country": "US",
    "region": "US-UT",
    "subregion": "US-UT-035",
    "lat": 40.5397321,
    "lng": -111.8053615,
    "name": "Big Willow Canyon & Sawmill Trail"
  },
  {
    "locId": "L1404194",
    "country": "US",
    "region": "US-UT",
    "subregion": "US-UT-005",
    "lat": 41.8519579,
    "lng": -111.7780987,
    "name": "Birch Canyon Rd"
  },
  {
    "locId": "L5755448",
    "country": "US",
    "region": "US-UT",
    "subregion": "US-UT-031",
    "lat": 38.441645,
    "lng": -111.954854,
    "name": "Birch Creek"
  },
  {
    "locId": "L3673899",
    "country": "US",
    "region": "US-UT",
    "subregion": "US-UT-031",
    "lat": 38.1745797,
    "lng": -112.3622203,
    "name": "Birch Creek CG"
  },
  {
    "locId": "L1243316",
    "country": "US",
    "region": "US-UT",
    "subregion": "US-UT-009",
    "lat": 40.9860535,
    "lng": -109.9722862,
    "name": "Birch Creek Rd.--Lower (WY border to ~8200 ft)"
  },
  {
    "locId": "L770872",
    "country": "US",
    "region": "US-UT",
    "subregion": "US-UT-003",
    "lat": 41.4689719,
    "lng": -112.1759892,
    "name": "Bird Refuge Rd."
  },
  {
    "locId": "L326849",
    "country": "US",
    "region": "US-UT",
    "subregion": "US-UT-057",
    "lat": 41.2351126,
    "lng": -111.9305866,
    "name": "Birdsong Trail"
  },
  {
    "locId": "L28400952",
    "country": "US",
    "region": "US-UT",
    "subregion": "US-UT-017",
    "lat": 38.0733507,
    "lng": -111.977952,
    "name": "Black Canyon Rd."
  },
  {
    "locId": "L6030872",
    "country": "US",
    "region": "US-UT",
    "subregion": "US-UT-005",
    "lat": 41.7058407,
    "lng": -111.8433926,
    "name": "BlackHawk Park"
  },
  {
    "locId": "L14518080",
    "country": "US",
    "region": "US-UT",
    "subregion": "US-UT-035",
    "lat": 40.4804726,
    "lng": -112.0207576,
    "name": "Blackridge Reservoir"
  },
  {
    "locId": "L805128",
    "country": "US",
    "region": "US-UT",
    "subregion": "US-UT-005",
    "lat": 41.6873994,
    "lng": -111.8339539,
    "name": "Blacksmith Fork @ Hwy 165 (Nibley Main St)"
  },
  {
    "locId": "L4558777",
    "country": "US",
    "region": "US-UT",
    "subregion": "US-UT-005",
    "lat": 41.623102,
    "lng": -111.6685259,
    "name": "Blacksmith Fork Canyon--Marshes"
  },
  {
    "locId": "L49760206",
    "country": "US",
    "region": "US-UT",
    "subregion": "US-UT-005",
    "lat": 41.6244244,
    "lng": -111.794242,
    "name": "Blacksmith Fork River Trail"
  },
  {
    "locId": "L46711478",
    "country": "US",
    "region": "US-UT",
    "subregion": "US-UT-037",
    "lat": 37.665057,
    "lng": -109.498148,
    "name": "Blanding City 4th Reservoir"
  },
  {
    "locId": "L5002909",
    "country": "US",
    "region": "US-UT",
    "subregion": "US-UT-037",
    "lat": 37.6305132,
    "lng": -109.4685459,
    "name": "Blanding City Cemetery"
  },
  {
    "locId": "L353763",
    "country": "US",
    "region": "US-UT",
    "subregion": "US-UT-037",
    "lat": 37.5699855,
    "lng": -109.4784638,
    "name": "Blanding WTP"
  },
  {
    "locId": "L427709",
    "country": "US",
    "region": "US-UT",
    "subregion": "US-UT-037",
    "lat": 37.5919954,
    "lng": -109.457581,
    "name": "Blanding--Universe Road Farms"
  },
  {
    "locId": "L2100491",
    "country": "US",
    "region": "US-UT",
    "subregion": "US-UT-037",
    "lat": 37.6254149,
    "lng": -109.4936728,
    "name": "Blanding--Westwater Creek"
  },
  {
    "locId": "L36574592",
    "country": "US",
    "region": "US-UT",
    "subregion": "US-UT-051",
    "lat": 40.6017916,
    "lng": -111.5503014,
    "name": "Bloods Lake"
  },
  {
    "locId": "L32210925",
    "country": "US",
    "region": "US-UT",
    "subregion": "US-UT-053",
    "lat": 37.059638,
    "lng": -113.7360957,
    "name": "Bloomington Cave"
  },
  {
    "locId": "L2158069",
    "country": "US",
    "region": "US-UT",
    "subregion": "US-UT-053",
    "lat": 37.0712107,
    "lng": -113.5639518,
    "name": "Bloomington Hills North Park"
  },
  {
    "locId": "L477261",
    "country": "US",
    "region": "US-UT",
    "subregion": "US-UT-053",
    "lat": 37.0409796,
    "lng": -113.6303043,
    "name": "Bloomington WTP"
  },
  {
    "locId": "L4532729",
    "country": "US",
    "region": "US-UT",
    "subregion": "US-UT-003",
    "lat": 41.8129708,
    "lng": -112.4606895,
    "name": "Blue Creek Reservoir"
  },
  {
    "locId": "L1802886",
    "country": "US",
    "region": "US-UT",
    "subregion": "US-UT-003",
    "lat": 41.8316281,
    "lng": -112.4537616,
    "name": "Blue Creek Spring"
  },
  {
    "locId": "L11803220",
    "country": "US",
    "region": "US-UT",
    "subregion": "US-UT-001",
    "lat": 38.3965835,
    "lng": -112.4195437,
    "name": "Blue Lake"
  },
  {
    "locId": "L20094576",
    "country": "US",
    "region": "US-UT",
    "subregion": "US-UT-043",
    "lat": 40.646336,
    "lng": -110.979144,
    "name": "Blue Lake"
  },
  {
    "locId": "L568688",
    "country": "US",
    "region": "US-UT",
    "subregion": "US-UT-051",
    "lat": 40.4873339,
    "lng": -110.9563994,
    "name": "Blue Lake"
  },
  {
    "locId": "L1289921",
    "country": "US",
    "region": "US-UT",
    "subregion": "US-UT-045",
    "lat": 40.4995377,
    "lng": -114.0317345,
    "name": "Blue Lake & Salt Springs WMA (Tooele Co.)"
  },
  {
    "locId": "L46711616",
    "country": "US",
    "region": "US-UT",
    "subregion": "US-UT-037",
    "lat": 37.680881,
    "lng": -109.481592,
    "name": "Blue Mountain Rd Reservoir"
  },
  {
    "locId": "L2116749",
    "country": "US",
    "region": "US-UT",
    "subregion": "US-UT-037",
    "lat": 37.2951544,
    "lng": -109.5648479,
    "name": "Bluff -- Cottonwood Wash Rd"
  },
  {
    "locId": "L2116782",
    "country": "US",
    "region": "US-UT",
    "subregion": "US-UT-037",
    "lat": 37.2908526,
    "lng": -109.5581961,
    "name": "Bluff -- Navajo Twins Ponds"
  },
  {
    "locId": "L2116794",
    "country": "US",
    "region": "US-UT",
    "subregion": "US-UT-037",
    "lat": 37.2767847,
    "lng": -109.5203018,
    "name": "Bluff -- San Juan River & Mission Road"
  },
  {
    "locId": "L352951",
    "country": "US",
    "region": "US-UT",
    "subregion": "US-UT-037",
    "lat": 37.2824167,
    "lng": -109.5616943,
    "name": "Bluff -- Town (Incl. San Juan River)"
  },
  {
    "locId": "L1383504",
    "country": "US",
    "region": "US-UT",
    "subregion": "US-UT-035",
    "lat": 40.4877726,
    "lng": -111.9112635,
    "name": "Bluffdale Ponds"
  },
  {
    "locId": "L12236107",
    "country": "US",
    "region": "US-UT",
    "subregion": "US-UT-035",
    "lat": 40.7464,
    "lng": -111.8248,
    "name": "Bonneville GC"
  },
  {
    "locId": "L12188222",
    "country": "US",
    "region": "US-UT",
    "subregion": "US-UT-035",
    "lat": 40.7372174,
    "lng": -111.8307968,
    "name": "Bonneville Hills (neighborhood)"
  },
  {
    "locId": "L1337180",
    "country": "US",
    "region": "US-UT",
    "subregion": "US-UT-011",
    "lat": 40.8606944,
    "lng": -111.8546691,
    "name": "Bonneville Ridge GC"
  },
  {
    "locId": "L7185614",
    "country": "US",
    "region": "US-UT",
    "subregion": "US-UT-045",
    "lat": 40.6466849,
    "lng": -112.5251055,
    "name": "Bonneville Seabase"
  },
  {
    "locId": "L1089794",
    "country": "US",
    "region": "US-UT",
    "subregion": "US-UT-005",
    "lat": 41.756843,
    "lng": -111.784687,
    "name": "Bonneville Shoreline Trail (Cache Co.)"
  },
  {
    "locId": "L1527874",
    "country": "US",
    "region": "US-UT",
    "subregion": "US-UT-057",
    "lat": 41.3018276,
    "lng": -111.9305803,
    "name": "Bonneville Shoreline Trail--Coldwater Canyon"
  },
  {
    "locId": "L2205695",
    "country": "US",
    "region": "US-UT",
    "subregion": "US-UT-011",
    "lat": 41.100975,
    "lng": -111.9045531,
    "name": "Bonneville Shoreline Trail--Fernwood Dr to North Fork Kays Creek"
  },
  {
    "locId": "L1587064",
    "country": "US",
    "region": "US-UT",
    "subregion": "US-UT-011",
    "lat": 40.8227093,
    "lng": -111.9024429,
    "name": "Bonneville Shoreline Trail--North Salt Lake"
  },
  {
    "locId": "L2839822",
    "country": "US",
    "region": "US-UT",
    "subregion": "US-UT-049",
    "lat": 40.4430505,
    "lng": -111.751551,
    "name": "Bonneville Shoreline Trail--North of AF Canyon (Utah Co.)"
  },
  {
    "locId": "L503154",
    "country": "US",
    "region": "US-UT",
    "subregion": "US-UT-049",
    "lat": 40.3252317,
    "lng": -111.6648459,
    "name": "Bonneville Shoreline Trail--North of Provo Canyon (Utah Co.)"
  },
  {
    "locId": "L1438513",
    "country": "US",
    "region": "US-UT",
    "subregion": "US-UT-057",
    "lat": 41.2781915,
    "lng": -111.9486637,
    "name": "Bonneville Shoreline Trail--Ogden Nature Center North"
  },
  {
    "locId": "L3199748",
    "country": "US",
    "region": "US-UT",
    "subregion": "US-UT-035",
    "lat": 40.6580213,
    "lng": -111.8008983,
    "name": "Bonneville Shoreline Trail--Parley's to Big Cottonwood Canyon"
  },
  {
    "locId": "L2832480",
    "country": "US",
    "region": "US-UT",
    "subregion": "US-UT-011",
    "lat": 40.9223127,
    "lng": -111.8664193,
    "name": "Bonneville Shoreline Trail--Parrish Creek Trailhead (Davis Co.)"
  },
  {
    "locId": "L1314017",
    "country": "US",
    "region": "US-UT",
    "subregion": "US-UT-035",
    "lat": 40.7607877,
    "lng": -111.8172711,
    "name": "Bonneville Shoreline Trail--Red Butte Canyon to Emigration Canyon"
  },
  {
    "locId": "L1275384",
    "country": "US",
    "region": "US-UT",
    "subregion": "US-UT-035",
    "lat": 40.7041436,
    "lng": -111.7897403,
    "name": "Bonneville Shoreline Trail--South of I-80"
  },
  {
    "locId": "L7460854",
    "country": "US",
    "region": "US-UT",
    "subregion": "US-UT-035",
    "lat": 40.7975673,
    "lng": -111.8533945,
    "name": "Bonneville Shoreline Trail--Terrace Hills"
  },
  {
    "locId": "L7058617",
    "country": "US",
    "region": "US-UT",
    "subregion": "US-UT-003",
    "lat": 41.3956807,
    "lng": -112.0227706,
    "name": "Bonneville Shoreline Trail--Willard Canyon to Pearsons Canyon"
  },
  {
    "locId": "L432728",
    "country": "US",
    "region": "US-UT",
    "subregion": "US-UT-019",
    "lat": 39.1799777,
    "lng": -109.4530964,
    "name": "Book Cliffs -- Cottonwood Canyon Rd"
  },
  {
    "locId": "L841113",
    "country": "US",
    "region": "US-UT",
    "subregion": "US-UT-053",
    "lat": 37.0894482,
    "lng": -113.5647726,
    "name": "Boots Cox Park"
  },
  {
    "locId": "L12083514",
    "country": "US",
    "region": "US-UT",
    "subregion": "US-UT-037",
    "lat": 38.4908933,
    "lng": -109.2830675,
    "name": "Boren Mesa Trail"
  },
  {
    "locId": "L1274188",
    "country": "US",
    "region": "US-UT",
    "subregion": "US-UT-017",
    "lat": 37.9931437,
    "lng": -111.4615345,
    "name": "Boulder Mountain (Garfield Co.)"
  },
  {
    "locId": "L503374",
    "country": "US",
    "region": "US-UT",
    "subregion": "US-UT-055",
    "lat": 38.1877789,
    "lng": -111.3527715,
    "name": "Boulder Mountain (Wayne Co.)"
  },
  {
    "locId": "L5820419",
    "country": "US",
    "region": "US-UT",
    "subregion": "US-UT-017",
    "lat": 37.9058767,
    "lng": -111.5060377,
    "name": "Boulder Mountain Guest Ranch and Creek"
  },
  {
    "locId": "L1295314",
    "country": "US",
    "region": "US-UT",
    "subregion": "US-UT-017",
    "lat": 37.9031474,
    "lng": -111.423045,
    "name": "Boulder Mountain Lodge & Pond"
  },
  {
    "locId": "L984883",
    "country": "US",
    "region": "US-UT",
    "subregion": "US-UT-017",
    "lat": 38.0818788,
    "lng": -111.6914749,
    "name": "Boulder Mountain--Big Lake & vicinity"
  },
  {
    "locId": "L988936",
    "country": "US",
    "region": "US-UT",
    "subregion": "US-UT-055",
    "lat": 38.2071962,
    "lng": -111.3481951,
    "name": "Boulder Mountain--Carcass Creek"
  },
  {
    "locId": "L989535",
    "country": "US",
    "region": "US-UT",
    "subregion": "US-UT-055",
    "lat": 38.1920542,
    "lng": -111.5375343,
    "name": "Boulder Mountain--Cook Lake to Grass Lake"
  },
  {
    "locId": "L3188449",
    "country": "US",
    "region": "US-UT",
    "subregion": "US-UT-017",
    "lat": 38.0392023,
    "lng": -111.3883746,
    "name": "Boulder Mountain--Deer Creek Lake & Trail"
  },
  {
    "locId": "L6015383",
    "country": "US",
    "region": "US-UT",
    "subregion": "US-UT-055",
    "lat": 38.185356,
    "lng": -111.450886,
    "name": "Boulder Mountain--Donkey Point"
  },
  {
    "locId": "L4160983",
    "country": "US",
    "region": "US-UT",
    "subregion": "US-UT-017",
    "lat": 37.9843756,
    "lng": -111.4394385,
    "name": "Boulder Mountain--Garkane Power Plant Access Rd."
  },
  {
    "locId": "L1342726",
    "country": "US",
    "region": "US-UT",
    "subregion": "US-UT-017",
    "lat": 38.1322368,
    "lng": -111.3259279,
    "name": "Boulder Mountain--Larb Hollow Overlook"
  },
  {
    "locId": "L989450",
    "country": "US",
    "region": "US-UT",
    "subregion": "US-UT-055",
    "lat": 38.1933344,
    "lng": -111.3960076,
    "name": "Boulder Mountain--North Slope Rd (8000'-8900')"
  },
  {
    "locId": "L6015393",
    "country": "US",
    "region": "US-UT",
    "subregion": "US-UT-055",
    "lat": 38.189973,
    "lng": -111.424695,
    "name": "Boulder Mountain--North Slope Rd (>8900')"
  },
  {
    "locId": "L989554",
    "country": "US",
    "region": "US-UT",
    "subregion": "US-UT-017",
    "lat": 38.0887507,
    "lng": -111.3405728,
    "name": "Boulder Mountain--Oak Creek"
  },
  {
    "locId": "L1048702",
    "country": "US",
    "region": "US-UT",
    "subregion": "US-UT-055",
    "lat": 38.1620282,
    "lng": -111.3320527,
    "name": "Boulder Mountain--Singletree CG"
  },
  {
    "locId": "L1756913",
    "country": "US",
    "region": "US-UT",
    "subregion": "US-UT-055",
    "lat": 38.1845652,
    "lng": -111.3505554,
    "name": "Boulder Mountain--White Canyon"
  },
  {
    "locId": "L988686",
    "country": "US",
    "region": "US-UT",
    "subregion": "US-UT-017",
    "lat": 38.1105707,
    "lng": -111.3384383,
    "name": "Boulder Mountain--Wildcat Meadow"
  },
  {
    "locId": "L3787341",
    "country": "US",
    "region": "US-UT",
    "subregion": "US-UT-055",
    "lat": 38.2207343,
    "lng": -111.372807,
    "name": "Boulder Mtn -- North Slope Rd (7000'-8000') - Lower Meadows And Pinyon Junipers"
  },
  {
    "locId": "L1652357",
    "country": "US",
    "region": "US-UT",
    "subregion": "US-UT-017",
    "lat": 37.9111372,
    "lng": -111.4237893,
    "name": "Boulder Town--Anasazi SP"
  },
  {
    "locId": "L49253715",
    "country": "US",
    "region": "US-UT",
    "subregion": "US-UT-039",
    "lat": 39.645292,
    "lng": -111.25436,
    "name": "Boulger Reservoir"
  },
  {
    "locId": "L2214296",
    "country": "US",
    "region": "US-UT",
    "subregion": "US-UT-011",
    "lat": 40.9810325,
    "lng": -111.8051208,
    "name": "Bountiful CG & Picnic Area"
  },
  {
    "locId": "L353612",
    "country": "US",
    "region": "US-UT",
    "subregion": "US-UT-011",
    "lat": 40.9120942,
    "lng": -111.9193835,
    "name": "Bountiful Landfill"
  },
  {
    "locId": "L1135013",
    "country": "US",
    "region": "US-UT",
    "subregion": "US-UT-011",
    "lat": 40.8671415,
    "lng": -111.8870687,
    "name": "Bountiful Memorial Park Cemetery"
  },
  {
    "locId": "L455462",
    "country": "US",
    "region": "US-UT",
    "subregion": "US-UT-011",
    "lat": 40.9643875,
    "lng": -111.8180108,
    "name": "Bountiful Peak"
  },
  {
    "locId": "L622135",
    "country": "US",
    "region": "US-UT",
    "subregion": "US-UT-011",
    "lat": 40.9057611,
    "lng": -111.9219303,
    "name": "Bountiful Pond"
  },
  {
    "locId": "L465851",
    "country": "US",
    "region": "US-UT",
    "subregion": "US-UT-003",
    "lat": 41.4936975,
    "lng": -111.950398,
    "name": "Box Elder CG"
  },
  {
    "locId": "L1177330",
    "country": "US",
    "region": "US-UT",
    "subregion": "US-UT-045",
    "lat": 40.4910853,
    "lng": -112.5361642,
    "name": "Box Elder Canyon"
  },
  {
    "locId": "L3834325",
    "country": "US",
    "region": "US-UT",
    "subregion": "US-UT-017",
    "lat": 37.772732,
    "lng": -111.422092,
    "name": "Boynton Overlook"
  },
  {
    "locId": "L4655792",
    "country": "US",
    "region": "US-UT",
    "subregion": "US-UT-033",
    "lat": 41.6797073,
    "lng": -111.0827208,
    "name": "Brazier Canyon"
  },
  {
    "locId": "L16004507",
    "country": "US",
    "region": "US-UT",
    "subregion": "US-UT-021",
    "lat": 37.6926994,
    "lng": -112.8494273,
    "name": "Brian Head (town)"
  },
  {
    "locId": "L11856068",
    "country": "US",
    "region": "US-UT",
    "subregion": "US-UT-021",
    "lat": 37.6839724,
    "lng": -112.8423735,
    "name": "Brian Head Reservoir"
  },
  {
    "locId": "L508211",
    "country": "US",
    "region": "US-UT",
    "subregion": "US-UT-021",
    "lat": 37.6811032,
    "lng": -112.8307915,
    "name": "Brian Head Ski Resort"
  },
  {
    "locId": "L571228",
    "country": "US",
    "region": "US-UT",
    "subregion": "US-UT-049",
    "lat": 40.34145,
    "lng": -111.60315,
    "name": "Bridal Veil Falls Overlook"
  },
  {
    "locId": "L3170502",
    "country": "US",
    "region": "US-UT",
    "subregion": "US-UT-005",
    "lat": 41.7475943,
    "lng": -111.8373469,
    "name": "Bridgerland Park"
  },
  {
    "locId": "L8375485",
    "country": "US",
    "region": "US-UT",
    "subregion": "US-UT-003",
    "lat": 41.502434,
    "lng": -112.00919,
    "name": "Brigham City Cemetery"
  },
  {
    "locId": "L5962889",
    "country": "US",
    "region": "US-UT",
    "subregion": "US-UT-003",
    "lat": 41.535993,
    "lng": -112.034771,
    "name": "Brigham City--1000 W & Wilson Ln Intersection"
  },
  {
    "locId": "L285630",
    "country": "US",
    "region": "US-UT",
    "subregion": "US-UT-049",
    "lat": 40.2498885,
    "lng": -111.6493116,
    "name": "Brigham Young University"
  },
  {
    "locId": "L1446360",
    "country": "US",
    "region": "US-UT",
    "subregion": "US-UT-049",
    "lat": 40.2529168,
    "lng": -111.6480335,
    "name": "Brigham Young University--Bean Museum"
  },
  {
    "locId": "L1114531",
    "country": "US",
    "region": "US-UT",
    "subregion": "US-UT-049",
    "lat": 40.2448286,
    "lng": -111.6512203,
    "name": "Brigham Young University--Harrison Arboretum"
  },
  {
    "locId": "L4752435",
    "country": "US",
    "region": "US-UT",
    "subregion": "US-UT-057",
    "lat": 41.3608333,
    "lng": -111.7438889,
    "name": "Brim Trail"
  },
  {
    "locId": "L2116681",
    "country": "US",
    "region": "US-UT",
    "subregion": "US-UT-037",
    "lat": 37.8743114,
    "lng": -109.2982149,
    "name": "Bronson Rd.--Juniper Patch"
  },
  {
    "locId": "L1362112",
    "country": "US",
    "region": "US-UT",
    "subregion": "US-UT-053",
    "lat": 37.1160989,
    "lng": -113.5826932,
    "name": "Brooks Nature Park"
  },
  {
    "locId": "L699389",
    "country": "US",
    "region": "US-UT",
    "subregion": "US-UT-047",
    "lat": 40.2522804,
    "lng": -109.7012329,
    "name": "Brough Reservoir"
  },
  {
    "locId": "L1437179",
    "country": "US",
    "region": "US-UT",
    "subregion": "US-UT-009",
    "lat": 40.8809283,
    "lng": -109.140816,
    "name": "Brown's Park WMA"
  },
  {
    "locId": "L36161660",
    "country": "US",
    "region": "US-UT",
    "subregion": "US-UT-017",
    "lat": 37.6729078,
    "lng": -112.1564933,
    "name": "Bryce Canyon City"
  },
  {
    "locId": "L1141771",
    "country": "US",
    "region": "US-UT",
    "subregion": "US-UT-017",
    "lat": 37.6721198,
    "lng": -112.1608079,
    "name": "Bryce Canyon City--Southwest Pond"
  },
  {
    "locId": "L33772550",
    "country": "US",
    "region": "US-UT",
    "subregion": "US-UT-017",
    "lat": 37.6787053,
    "lng": -112.155416,
    "name": "Bryce Canyon City--Syrett Hollow"
  },
  {
    "locId": "L43648239",
    "country": "US",
    "region": "US-UT",
    "subregion": "US-UT-017",
    "lat": 37.6748159,
    "lng": -112.1545197,
    "name": "Bryce Canyon Grand Hotel--Pond"
  },
  {
    "locId": "L4125875",
    "country": "US",
    "region": "US-UT",
    "subregion": "US-UT-017",
    "lat": 37.6668844,
    "lng": -112.1393223,
    "name": "Bryce Canyon Lodge--Rim Trail"
  },
  {
    "locId": "L268297",
    "country": "US",
    "region": "US-UT",
    "subregion": "US-UT-017",
    "lat": 37.6461898,
    "lng": -112.1660052,
    "name": "Bryce Canyon NP"
  },
  {
    "locId": "L5071273",
    "country": "US",
    "region": "US-UT",
    "subregion": "US-UT-025",
    "lat": 37.5163312,
    "lng": -112.2647016,
    "name": "Bryce Canyon NP--Agua Canyon"
  },
  {
    "locId": "L5747901",
    "country": "US",
    "region": "US-UT",
    "subregion": "US-UT-025",
    "lat": 37.4945413,
    "lng": -112.2549534,
    "name": "Bryce Canyon NP--Black Birch Canyon"
  },
  {
    "locId": "L1566583",
    "country": "US",
    "region": "US-UT",
    "subregion": "US-UT-025",
    "lat": 37.4750856,
    "lng": -112.2395718,
    "name": "Bryce Canyon NP--Bristlecone Loop Trail"
  },
  {
    "locId": "L695960",
    "country": "US",
    "region": "US-UT",
    "subregion": "US-UT-017",
    "lat": 37.6037943,
    "lng": -112.156409,
    "name": "Bryce Canyon NP--Bryce Point"
  },
  {
    "locId": "L1208296",
    "country": "US",
    "region": "US-UT",
    "subregion": "US-UT-017",
    "lat": 37.5795418,
    "lng": -112.2258139,
    "name": "Bryce Canyon NP--Bryce Point to Natural Bridge"
  },
  {
    "locId": "L2361336",
    "country": "US",
    "region": "US-UT",
    "subregion": "US-UT-017",
    "lat": 37.6455987,
    "lng": -112.1394038,
    "name": "Bryce Canyon NP--Fairyland Loop Trail"
  },
  {
    "locId": "L1208307",
    "country": "US",
    "region": "US-UT",
    "subregion": "US-UT-017",
    "lat": 37.6494078,
    "lng": -112.1473432,
    "name": "Bryce Canyon NP--Fairyland Point"
  },
  {
    "locId": "L3849759",
    "country": "US",
    "region": "US-UT",
    "subregion": "US-UT-017",
    "lat": 37.544858,
    "lng": -112.247119,
    "name": "Bryce Canyon NP--Farview and Piracy Points"
  },
  {
    "locId": "L30641316",
    "country": "US",
    "region": "US-UT",
    "subregion": "US-UT-017",
    "lat": 37.6556181,
    "lng": -112.1623632,
    "name": "Bryce Canyon NP--Gateway Trail"
  },
  {
    "locId": "L30665329",
    "country": "US",
    "region": "US-UT",
    "subregion": "US-UT-017",
    "lat": 37.6559515,
    "lng": -112.1640179,
    "name": "Bryce Canyon NP--Great Western Trail"
  },
  {
    "locId": "L4125821",
    "country": "US",
    "region": "US-UT",
    "subregion": "US-UT-017",
    "lat": 37.6158224,
    "lng": -112.1703758,
    "name": "Bryce Canyon NP--Inspiration Point"
  },
  {
    "locId": "L1532363",
    "country": "US",
    "region": "US-UT",
    "subregion": "US-UT-017",
    "lat": 37.6639902,
    "lng": -112.1144931,
    "name": "Bryce Canyon NP--Mossy Cave"
  },
  {
    "locId": "L4125922",
    "country": "US",
    "region": "US-UT",
    "subregion": "US-UT-025",
    "lat": 37.5321293,
    "lng": -112.2606311,
    "name": "Bryce Canyon NP--Natural Bridge"
  },
  {
    "locId": "L11286162",
    "country": "US",
    "region": "US-UT",
    "subregion": "US-UT-017",
    "lat": 37.6206881,
    "lng": -112.1636885,
    "name": "Bryce Canyon NP--Navajo Loop Trail"
  },
  {
    "locId": "L1179352",
    "country": "US",
    "region": "US-UT",
    "subregion": "US-UT-017",
    "lat": 37.6319067,
    "lng": -112.1648955,
    "name": "Bryce Canyon NP--North Campground to Bryce Point"
  },
  {
    "locId": "L4125852",
    "country": "US",
    "region": "US-UT",
    "subregion": "US-UT-017",
    "lat": 37.5968512,
    "lng": -112.1693459,
    "name": "Bryce Canyon NP--Paria Viewpoint"
  },
  {
    "locId": "L3849858",
    "country": "US",
    "region": "US-UT",
    "subregion": "US-UT-025",
    "lat": 37.503628,
    "lng": -112.262384,
    "name": "Bryce Canyon NP--Ponderosa Canyon"
  },
  {
    "locId": "L2354355",
    "country": "US",
    "region": "US-UT",
    "subregion": "US-UT-017",
    "lat": 37.6204658,
    "lng": -112.1583617,
    "name": "Bryce Canyon NP--Queen's Garden Trail"
  },
  {
    "locId": "L13554106",
    "country": "US",
    "region": "US-UT",
    "subregion": "US-UT-025",
    "lat": 37.4758475,
    "lng": -112.2408562,
    "name": "Bryce Canyon NP--Rainbow Point"
  },
  {
    "locId": "L6096723",
    "country": "US",
    "region": "US-UT",
    "subregion": "US-UT-025",
    "lat": 37.4650124,
    "lng": -112.2401369,
    "name": "Bryce Canyon NP--Riggs Spring Loop Trail"
  },
  {
    "locId": "L37367070",
    "country": "US",
    "region": "US-UT",
    "subregion": "US-UT-017",
    "lat": 37.6283549,
    "lng": -112.1629429,
    "name": "Bryce Canyon NP--Sunrise Point"
  },
  {
    "locId": "L2424192",
    "country": "US",
    "region": "US-UT",
    "subregion": "US-UT-017",
    "lat": 37.6200768,
    "lng": -112.1765578,
    "name": "Bryce Canyon NP--Sunset CG"
  },
  {
    "locId": "L1459854",
    "country": "US",
    "region": "US-UT",
    "subregion": "US-UT-017",
    "lat": 37.6234538,
    "lng": -112.1670823,
    "name": "Bryce Canyon NP--Sunset Point"
  },
  {
    "locId": "L2354360",
    "country": "US",
    "region": "US-UT",
    "subregion": "US-UT-017",
    "lat": 37.5910858,
    "lng": -112.199893,
    "name": "Bryce Canyon NP--Swamp Canyon Loop Trail"
  },
  {
    "locId": "L2088395",
    "country": "US",
    "region": "US-UT",
    "subregion": "US-UT-017",
    "lat": 37.5873738,
    "lng": -112.21352,
    "name": "Bryce Canyon NP--Swamp Canyon Overlook"
  },
  {
    "locId": "L1194266",
    "country": "US",
    "region": "US-UT",
    "subregion": "US-UT-017",
    "lat": 37.6139127,
    "lng": -112.1331704,
    "name": "Bryce Canyon NP--Tropic Trail"
  },
  {
    "locId": "L39119357",
    "country": "US",
    "region": "US-UT",
    "subregion": "US-UT-025",
    "lat": 37.4801354,
    "lng": -112.2308594,
    "name": "Bryce Canyon NP--Under the Rim Trail"
  },
  {
    "locId": "L695942",
    "country": "US",
    "region": "US-UT",
    "subregion": "US-UT-017",
    "lat": 37.6407005,
    "lng": -112.1701101,
    "name": "Bryce Canyon NP--Visitor Center"
  },
  {
    "locId": "L20417247",
    "country": "US",
    "region": "US-UT",
    "subregion": "US-UT-017",
    "lat": 37.7107368,
    "lng": -112.216772,
    "name": "Bryce Canyon Pines Campground"
  },
  {
    "locId": "L3849847",
    "country": "US",
    "region": "US-UT",
    "subregion": "US-UT-017",
    "lat": 37.6270294,
    "lng": -112.1680284,
    "name": "Bryce Canyon--Bryce Canyon Lodge"
  },
  {
    "locId": "L4125885",
    "country": "US",
    "region": "US-UT",
    "subregion": "US-UT-017",
    "lat": 37.6558567,
    "lng": -112.1575871,
    "name": "Bryce Lodge - Old Bryce Town Loop"
  },
  {
    "locId": "L4478811",
    "country": "US",
    "region": "US-UT",
    "subregion": "US-UT-015",
    "lat": 39.242225,
    "lng": -110.813663,
    "name": "Buckhorn Reservoir"
  },
  {
    "locId": "L9596361",
    "country": "US",
    "region": "US-UT",
    "subregion": "US-UT-015",
    "lat": 39.1234602,
    "lng": -110.6938809,
    "name": "Buckhorn Wash Pictograph Panel"
  },
  {
    "locId": "L12491930",
    "country": "US",
    "region": "US-UT",
    "subregion": "US-UT-025",
    "lat": 37.0114004,
    "lng": -111.9986278,
    "name": "Buckskin Gulch"
  },
  {
    "locId": "L621440",
    "country": "US",
    "region": "US-UT",
    "subregion": "US-UT-005",
    "lat": 41.729113,
    "lng": -111.9305992,
    "name": "Bud Phelps WMA"
  },
  {
    "locId": "L1460618",
    "country": "US",
    "region": "US-UT",
    "subregion": "US-UT-011",
    "lat": 40.9801077,
    "lng": -111.9387368,
    "name": "Buffalo Ranch Pond"
  },
  {
    "locId": "L1442792",
    "country": "US",
    "region": "US-UT",
    "subregion": "US-UT-021",
    "lat": 37.7198264,
    "lng": -113.0774687,
    "name": "Bulldog Rd Pond @ 2400 N "
  },
  {
    "locId": "L9257874",
    "country": "US",
    "region": "US-UT",
    "subregion": "US-UT-037",
    "lat": 37.4373616,
    "lng": -110.0134712,
    "name": "Bullet Canyon--Jailhouse Spring & Ruin"
  },
  {
    "locId": "L2365372",
    "country": "US",
    "region": "US-UT",
    "subregion": "US-UT-025",
    "lat": 37.520287,
    "lng": -110.721411,
    "name": "Bullfrog Basin Campground"
  },
  {
    "locId": "L2365343",
    "country": "US",
    "region": "US-UT",
    "subregion": "US-UT-025",
    "lat": 37.52037,
    "lng": -110.737888,
    "name": "Bullfrog--Marina"
  },
  {
    "locId": "L615147",
    "country": "US",
    "region": "US-UT",
    "subregion": "US-UT-047",
    "lat": 40.3542954,
    "lng": -109.818778,
    "name": "Bullock Reservoir"
  },
  {
    "locId": "L32605410",
    "country": "US",
    "region": "US-UT",
    "subregion": "US-UT-021",
    "lat": 37.5505405,
    "lng": -113.2777975,
    "name": "Bumblebee Spring"
  },
  {
    "locId": "L5888136",
    "country": "US",
    "region": "US-UT",
    "subregion": "US-UT-027",
    "lat": 38.879518,
    "lng": -113.876507,
    "name": "Burbank Hills--Cedar Pass"
  },
  {
    "locId": "L1292806",
    "country": "US",
    "region": "US-UT",
    "subregion": "US-UT-017",
    "lat": 37.8316835,
    "lng": -110.9680477,
    "name": "Burr Trail Rd.--Big Thompson Mesa"
  },
  {
    "locId": "L1174116",
    "country": "US",
    "region": "US-UT",
    "subregion": "US-UT-017",
    "lat": 37.85474,
    "lng": -111.355371,
    "name": "Burr Trail Rd.--Deer Creek CG"
  },
  {
    "locId": "L1756908",
    "country": "US",
    "region": "US-UT",
    "subregion": "US-UT-017",
    "lat": 37.88734,
    "lng": -111.3972607,
    "name": "Burr Trail Rd.--Draw Rd Pond"
  },
  {
    "locId": "L525504",
    "country": "US",
    "region": "US-UT",
    "subregion": "US-UT-017",
    "lat": 37.9187775,
    "lng": -111.2386312,
    "name": "Burr Trail Rd.--Long Canyon & vicinity"
  },
  {
    "locId": "L1756907",
    "country": "US",
    "region": "US-UT",
    "subregion": "US-UT-017",
    "lat": 37.8563313,
    "lng": -111.3099683,
    "name": "Burr Trail Rd.--The Gulch"
  },
  {
    "locId": "L211854",
    "country": "US",
    "region": "US-UT",
    "subregion": "US-UT-023",
    "lat": 39.795525,
    "lng": -111.8635378,
    "name": "Burraston Ponds"
  },
  {
    "locId": "L12236390",
    "country": "US",
    "region": "US-UT",
    "subregion": "US-UT-019",
    "lat": 38.5033528,
    "lng": -109.2275858,
    "name": "Burro Pass"
  },
  {
    "locId": "L4065864",
    "country": "US",
    "region": "US-UT",
    "subregion": "US-UT-041",
    "lat": 38.5697099,
    "lng": -111.86378,
    "name": "Burrville"
  },
  {
    "locId": "L20920537",
    "country": "US",
    "region": "US-UT",
    "subregion": "US-UT-017",
    "lat": 38.1445476,
    "lng": -112.3049068,
    "name": "Butch Cassidy Childhood Home"
  },
  {
    "locId": "L46711660",
    "country": "US",
    "region": "US-UT",
    "subregion": "US-UT-037",
    "lat": 37.53442,
    "lng": -109.616934,
    "name": "Butler Wash Dinosaur Tracksite"
  },
  {
    "locId": "L7502666",
    "country": "US",
    "region": "US-UT",
    "subregion": "US-UT-035",
    "lat": 40.5686869,
    "lng": -111.8476224,
    "name": "Buttercup Park"
  },
  {
    "locId": "L354340",
    "country": "US",
    "region": "US-UT",
    "subregion": "US-UT-035",
    "lat": 40.4929421,
    "lng": -112.1174115,
    "name": "Butterfield Canyon--Lower (canyon bottom)"
  },
  {
    "locId": "L906976",
    "country": "US",
    "region": "US-UT",
    "subregion": "US-UT-035",
    "lat": 40.4903357,
    "lng": -112.1695632,
    "name": "Butterfield Canyon--Upper (switchbacks to pass)"
  },
  {
    "locId": "L2221850",
    "country": "US",
    "region": "US-UT",
    "subregion": "US-UT-049",
    "lat": 40.4618248,
    "lng": -112.1815252,
    "name": "Butterfield Peaks Trail"
  },
  {
    "locId": "L5991888",
    "country": "US",
    "region": "US-UT",
    "subregion": "US-UT-035",
    "lat": 40.4764968,
    "lng": -112.1739078,
    "name": "Butterfield Peaks Trail (Salt Lake Co.)"
  },
  {
    "locId": "L5991912",
    "country": "US",
    "region": "US-UT",
    "subregion": "US-UT-045",
    "lat": 40.4689229,
    "lng": -112.1745086,
    "name": "Butterfield Peaks Trail (Tooele Co.)"
  },
  {
    "locId": "L5273487",
    "country": "US",
    "region": "US-UT",
    "subregion": "US-UT-035",
    "lat": 40.61743,
    "lng": -111.8049914,
    "name": "Bywater Park"
  },
  {
    "locId": "L7742869",
    "country": "US",
    "region": "US-UT",
    "subregion": "US-UT-023",
    "lat": 39.8584852,
    "lng": -113.7749264,
    "name": "CCC Campground"
  },
  {
    "locId": "L989462",
    "country": "US",
    "region": "US-UT",
    "subregion": "US-UT-055",
    "lat": 38.3196058,
    "lng": -111.0280037,
    "name": "Cainville -- Sweetwater Rd "
  },
  {
    "locId": "L2367351",
    "country": "US",
    "region": "US-UT",
    "subregion": "US-UT-047",
    "lat": 40.72809,
    "lng": -109.20472,
    "name": "Calder Reservoir"
  },
  {
    "locId": "L269284",
    "country": "US",
    "region": "US-UT",
    "subregion": "US-UT-023",
    "lat": 39.8960909,
    "lng": -113.7119007,
    "name": "Callao"
  },
  {
    "locId": "L1465808",
    "country": "US",
    "region": "US-UT",
    "subregion": "US-UT-049",
    "lat": 40.1860466,
    "lng": -111.6441331,
    "name": "Camelot 1900 W Pond"
  },
  {
    "locId": "L508204",
    "country": "US",
    "region": "US-UT",
    "subregion": "US-UT-049",
    "lat": 40.188447,
    "lng": -111.6503298,
    "name": "Camelot Woods & Frontage Rd"
  },
  {
    "locId": "L4323225",
    "country": "US",
    "region": "US-UT",
    "subregion": "US-UT-003",
    "lat": 41.8257239,
    "lng": -112.0643181,
    "name": "Camp Fife"
  },
  {
    "locId": "L7619033",
    "country": "US",
    "region": "US-UT",
    "subregion": "US-UT-049",
    "lat": 40.252568,
    "lng": -112.098838,
    "name": "Camp Floyd Cemetery"
  },
  {
    "locId": "L1219702",
    "country": "US",
    "region": "US-UT",
    "subregion": "US-UT-033",
    "lat": 41.9822238,
    "lng": -111.4069784,
    "name": "Camp Hunt BSA"
  },
  {
    "locId": "L4754092",
    "country": "US",
    "region": "US-UT",
    "subregion": "US-UT-039",
    "lat": 39.6756826,
    "lng": -111.265465,
    "name": "Camp MIA Shalom"
  },
  {
    "locId": "L824373",
    "country": "US",
    "region": "US-UT",
    "subregion": "US-UT-005",
    "lat": 41.740738,
    "lng": -111.8050504,
    "name": "Canal Trail"
  },
  {
    "locId": "L5519733",
    "country": "US",
    "region": "US-UT",
    "subregion": "US-UT-015",
    "lat": 39.073511,
    "lng": -110.733819,
    "name": "Cane Wash"
  },
  {
    "locId": "L7703922",
    "country": "US",
    "region": "US-UT",
    "subregion": "US-UT-037",
    "lat": 37.8888783,
    "lng": -109.3445849,
    "name": "Canyon Country Discovery Center"
  },
  {
    "locId": "L923884",
    "country": "US",
    "region": "US-UT",
    "subregion": "US-UT-049",
    "lat": 40.3303846,
    "lng": -111.6196775,
    "name": "Canyon Glen Park"
  },
  {
    "locId": "L14013884",
    "country": "US",
    "region": "US-UT",
    "subregion": "US-UT-053",
    "lat": 37.1298662,
    "lng": -113.4855442,
    "name": "Canyon Park"
  },
  {
    "locId": "L1415974",
    "country": "US",
    "region": "US-UT",
    "subregion": "US-UT-021",
    "lat": 37.6755639,
    "lng": -113.0531464,
    "name": "Canyon Park"
  },
  {
    "locId": "L1526808",
    "country": "US",
    "region": "US-UT",
    "subregion": "US-UT-005",
    "lat": 41.7331789,
    "lng": -111.8258546,
    "name": "Canyon Rd Path -- Canyon Blvd to 600 E"
  },
  {
    "locId": "L3985730",
    "country": "US",
    "region": "US-UT",
    "subregion": "US-UT-035",
    "lat": 40.7041913,
    "lng": -111.8075448,
    "name": "Canyon Rim Park"
  },
  {
    "locId": "L3816478",
    "country": "US",
    "region": "US-UT",
    "subregion": "US-UT-009",
    "lat": 40.8870435,
    "lng": -109.5523167,
    "name": "Canyon Rim Trail"
  },
  {
    "locId": "L8651856",
    "country": "US",
    "region": "US-UT",
    "subregion": "US-UT-019",
    "lat": 38.7630099,
    "lng": -109.7507073,
    "name": "Canyonlands Field Airport"
  },
  {
    "locId": "L4037753",
    "country": "US",
    "region": "US-UT",
    "subregion": "US-UT-037",
    "lat": 38.3959624,
    "lng": -109.8752761,
    "name": "Canyonlands NP--Aztec Butte Trail"
  },
  {
    "locId": "L13535487",
    "country": "US",
    "region": "US-UT",
    "subregion": "US-UT-037",
    "lat": 38.1104368,
    "lng": -109.8175381,
    "name": "Canyonlands NP--Big Spring-Wooden Shoe Loop"
  },
  {
    "locId": "L5860034",
    "country": "US",
    "region": "US-UT",
    "subregion": "US-UT-037",
    "lat": 38.3457228,
    "lng": -109.8603111,
    "name": "Canyonlands NP--Buck Canyon Overlook"
  },
  {
    "locId": "L2389089",
    "country": "US",
    "region": "US-UT",
    "subregion": "US-UT-037",
    "lat": 38.1571693,
    "lng": -109.7515619,
    "name": "Canyonlands NP--Cave Spring Trail"
  },
  {
    "locId": "L7384049",
    "country": "US",
    "region": "US-UT",
    "subregion": "US-UT-037",
    "lat": 38.1178776,
    "lng": -109.8497136,
    "name": "Canyonlands NP--Chesler Park"
  },
  {
    "locId": "L1438096",
    "country": "US",
    "region": "US-UT",
    "subregion": "US-UT-037",
    "lat": 38.1377287,
    "lng": -109.8616928,
    "name": "Canyonlands NP--Devils Kitchen"
  },
  {
    "locId": "L7094707",
    "country": "US",
    "region": "US-UT",
    "subregion": "US-UT-037",
    "lat": 38.1205355,
    "lng": -109.8400568,
    "name": "Canyonlands NP--Druid Arch Trail"
  },
  {
    "locId": "L4702745",
    "country": "US",
    "region": "US-UT",
    "subregion": "US-UT-037",
    "lat": 38.1416787,
    "lng": -109.8272109,
    "name": "Canyonlands NP--Elephant Hill Road"
  },
  {
    "locId": "L2168047",
    "country": "US",
    "region": "US-UT",
    "subregion": "US-UT-037",
    "lat": 38.3107164,
    "lng": -109.8567769,
    "name": "Canyonlands NP--Grand View Point Overlook"
  },
  {
    "locId": "L989779",
    "country": "US",
    "region": "US-UT",
    "subregion": "US-UT-055",
    "lat": 38.4529166,
    "lng": -110.2065182,
    "name": "Canyonlands NP--Horseshoe Canyon"
  },
  {
    "locId": "L301438",
    "country": "US",
    "region": "US-UT",
    "subregion": "US-UT-037",
    "lat": 38.414393,
    "lng": -109.8363061,
    "name": "Canyonlands NP--Island in the Sky"
  },
  {
    "locId": "L29799366",
    "country": "US",
    "region": "US-UT",
    "subregion": "US-UT-037",
    "lat": 38.433809,
    "lng": -109.826937,
    "name": "Canyonlands NP--Lathrop Trail"
  },
  {
    "locId": "L1082976",
    "country": "US",
    "region": "US-UT",
    "subregion": "US-UT-055",
    "lat": 38.2079718,
    "lng": -109.9573517,
    "name": "Canyonlands NP--Maze District"
  },
  {
    "locId": "L5859985",
    "country": "US",
    "region": "US-UT",
    "subregion": "US-UT-037",
    "lat": 38.388624,
    "lng": -109.8651921,
    "name": "Canyonlands NP--Mesa Arch Trail"
  },
  {
    "locId": "L11833646",
    "country": "US",
    "region": "US-UT",
    "subregion": "US-UT-037",
    "lat": 38.3549867,
    "lng": -109.8635092,
    "name": "Canyonlands NP--Murphy TH"
  },
  {
    "locId": "L1437633",
    "country": "US",
    "region": "US-UT",
    "subregion": "US-UT-037",
    "lat": 38.1467224,
    "lng": -109.8025551,
    "name": "Canyonlands NP--Needles Campground"
  },
  {
    "locId": "L301439",
    "country": "US",
    "region": "US-UT",
    "subregion": "US-UT-037",
    "lat": 38.1472703,
    "lng": -109.8706121,
    "name": "Canyonlands NP--Needles District"
  },
  {
    "locId": "L40861774",
    "country": "US",
    "region": "US-UT",
    "subregion": "US-UT-037",
    "lat": 38.3135655,
    "lng": -109.8571933,
    "name": "Canyonlands NP--Orange Cliffs Overlook"
  },
  {
    "locId": "L1542574",
    "country": "US",
    "region": "US-UT",
    "subregion": "US-UT-037",
    "lat": 38.1702608,
    "lng": -109.8063097,
    "name": "Canyonlands NP--Pothole Point"
  },
  {
    "locId": "L40885697",
    "country": "US",
    "region": "US-UT",
    "subregion": "US-UT-037",
    "lat": 38.1636668,
    "lng": -109.7603528,
    "name": "Canyonlands NP--Roadside Ruin Trail"
  },
  {
    "locId": "L5855832",
    "country": "US",
    "region": "US-UT",
    "subregion": "US-UT-037",
    "lat": 38.4517739,
    "lng": -109.8199582,
    "name": "Canyonlands NP--Shafer Canyon Overlook"
  },
  {
    "locId": "L41209840",
    "country": "US",
    "region": "US-UT",
    "subregion": "US-UT-037",
    "lat": 38.4480588,
    "lng": -109.8216316,
    "name": "Canyonlands NP--Shafer Trail Viewpoint"
  },
  {
    "locId": "L4702641",
    "country": "US",
    "region": "US-UT",
    "subregion": "US-UT-037",
    "lat": 38.1803865,
    "lng": -109.8141137,
    "name": "Canyonlands NP--Slickrock Trail"
  },
  {
    "locId": "L2167982",
    "country": "US",
    "region": "US-UT",
    "subregion": "US-UT-037",
    "lat": 38.4272776,
    "lng": -109.9265814,
    "name": "Canyonlands NP--Upheaval Dome Overlooks Trail"
  },
  {
    "locId": "L2168348",
    "country": "US",
    "region": "US-UT",
    "subregion": "US-UT-037",
    "lat": 38.4598604,
    "lng": -109.8206502,
    "name": "Canyonlands NP--Visitor Center--Island in the Sky"
  },
  {
    "locId": "L2168026",
    "country": "US",
    "region": "US-UT",
    "subregion": "US-UT-037",
    "lat": 38.3795133,
    "lng": -109.887979,
    "name": "Canyonlands NP--Willow Flat CG & Green River Overlook"
  },
  {
    "locId": "L7384080",
    "country": "US",
    "region": "US-UT",
    "subregion": "US-UT-037",
    "lat": 38.1327657,
    "lng": -109.7948249,
    "name": "Canyonlands NP--Wooden Shoe-Lost Canyon Loop"
  },
  {
    "locId": "L2212472",
    "country": "US",
    "region": "US-UT",
    "subregion": "US-UT-037",
    "lat": 38.0702323,
    "lng": -109.5665324,
    "name": "Canyonlands Research Center"
  },
  {
    "locId": "L29756005",
    "country": "US",
    "region": "US-UT",
    "subregion": "US-UT-037",
    "lat": 38.4131962,
    "lng": -109.8110243,
    "name": "Canyonlands--Lathrop Trail"
  },
  {
    "locId": "L9121209",
    "country": "US",
    "region": "US-UT",
    "subregion": "US-UT-053",
    "lat": 37.1474962,
    "lng": -113.6287071,
    "name": "Canyons Complex Pond"
  },
  {
    "locId": "L2856031",
    "country": "US",
    "region": "US-UT",
    "subregion": "US-UT-043",
    "lat": 40.6695718,
    "lng": -111.5770626,
    "name": "Canyons Resort (Summit Co.)"
  },
  {
    "locId": "L8148045",
    "country": "US",
    "region": "US-UT",
    "subregion": "US-UT-017",
    "lat": 37.7698243,
    "lng": -111.6094625,
    "name": "Canyons of the Escalante RV Park"
  },
  {
    "locId": "L4306937",
    "country": "US",
    "region": "US-UT",
    "subregion": "US-UT-055",
    "lat": 38.4707937,
    "lng": -111.3631725,
    "name": "Capital Reef NP -- Cathedral Valley CG"
  },
  {
    "locId": "L4307019",
    "country": "US",
    "region": "US-UT",
    "subregion": "US-UT-055",
    "lat": 38.2862987,
    "lng": -111.1623073,
    "name": "Capital Reef NP -- The Oxbow"
  },
  {
    "locId": "L166123",
    "country": "US",
    "region": "US-UT",
    "subregion": "US-UT-055",
    "lat": 38.284879,
    "lng": -111.2196009,
    "name": "Capitol Reef NP"
  },
  {
    "locId": "L3834314",
    "country": "US",
    "region": "US-UT",
    "subregion": "US-UT-055",
    "lat": 38.20953,
    "lng": -111.169546,
    "name": "Capitol Reef NP--Capitol Gorge Trail"
  },
  {
    "locId": "L3834316",
    "country": "US",
    "region": "US-UT",
    "subregion": "US-UT-055",
    "lat": 38.282664,
    "lng": -111.246227,
    "name": "Capitol Reef NP--Cohab Canyon Trail"
  },
  {
    "locId": "L989184",
    "country": "US",
    "region": "US-UT",
    "subregion": "US-UT-055",
    "lat": 38.2818519,
    "lng": -111.2488904,
    "name": "Capitol Reef NP--Fruita CG"
  },
  {
    "locId": "L15093801",
    "country": "US",
    "region": "US-UT",
    "subregion": "US-UT-055",
    "lat": 38.2853032,
    "lng": -111.2463226,
    "name": "Capitol Reef NP--Fruita Picnic Area"
  },
  {
    "locId": "L7753540",
    "country": "US",
    "region": "US-UT",
    "subregion": "US-UT-055",
    "lat": 38.27821,
    "lng": -111.195404,
    "name": "Capitol Reef NP--Grand Wash"
  },
  {
    "locId": "L7431326",
    "country": "US",
    "region": "US-UT",
    "subregion": "US-UT-017",
    "lat": 37.8306667,
    "lng": -111.0146141,
    "name": "Capitol Reef NP--Lower Muley Twist Canyon"
  },
  {
    "locId": "L7426502",
    "country": "US",
    "region": "US-UT",
    "subregion": "US-UT-055",
    "lat": 38.183591,
    "lng": -111.16957,
    "name": "Capitol Reef NP--Lower Pleasant Creek"
  },
  {
    "locId": "L3834310",
    "country": "US",
    "region": "US-UT",
    "subregion": "US-UT-055",
    "lat": 38.286789,
    "lng": -111.245437,
    "name": "Capitol Reef NP--Merin Smith Place"
  },
  {
    "locId": "L525509",
    "country": "US",
    "region": "US-UT",
    "subregion": "US-UT-017",
    "lat": 38.1146212,
    "lng": -111.0710478,
    "name": "Capitol Reef NP--Notom Rd.--Near Sheets Gulch"
  },
  {
    "locId": "L20956608",
    "country": "US",
    "region": "US-UT",
    "subregion": "US-UT-055",
    "lat": 38.2982464,
    "lng": -111.2955054,
    "name": "Capitol Reef NP--Sunset Point"
  },
  {
    "locId": "L3563343",
    "country": "US",
    "region": "US-UT",
    "subregion": "US-UT-007",
    "lat": 39.6452051,
    "lng": -110.8642119,
    "name": "Carbon Country Club"
  },
  {
    "locId": "L16723694",
    "country": "US",
    "region": "US-UT",
    "subregion": "US-UT-007",
    "lat": 39.6314194,
    "lng": -110.8441575,
    "name": "Carbonville"
  },
  {
    "locId": "L1309595",
    "country": "US",
    "region": "US-UT",
    "subregion": "US-UT-009",
    "lat": 40.9308182,
    "lng": -109.7316384,
    "name": "Carmel CG"
  },
  {
    "locId": "L13158321",
    "country": "US",
    "region": "US-UT",
    "subregion": "US-UT-035",
    "lat": 40.5019387,
    "lng": -111.8397912,
    "name": "Carolina Hills Trailhead"
  },
  {
    "locId": "L11755365",
    "country": "US",
    "region": "US-UT",
    "subregion": "US-UT-049",
    "lat": 40.2973992,
    "lng": -111.6664188,
    "name": "Carterville Road Trail"
  },
  {
    "locId": "L15407731",
    "country": "US",
    "region": "US-UT",
    "subregion": "US-UT-025",
    "lat": 37.497271,
    "lng": -112.751559,
    "name": "Cascade Falls Trailhead"
  },
  {
    "locId": "L1418324",
    "country": "US",
    "region": "US-UT",
    "subregion": "US-UT-051",
    "lat": 40.4530153,
    "lng": -111.5818074,
    "name": "Cascade Scenic Drive"
  },
  {
    "locId": "L504377",
    "country": "US",
    "region": "US-UT",
    "subregion": "US-UT-051",
    "lat": 40.4586747,
    "lng": -111.5493554,
    "name": "Cascade Springs "
  },
  {
    "locId": "L9264000",
    "country": "US",
    "region": "US-UT",
    "subregion": "US-UT-043",
    "lat": 41.1254234,
    "lng": -111.1660491,
    "name": "Castle Rock Pond"
  },
  {
    "locId": "L4706207",
    "country": "US",
    "region": "US-UT",
    "subregion": "US-UT-019",
    "lat": 38.6392905,
    "lng": -109.3721581,
    "name": "Castle Valley -- La Sal Loop Rd"
  },
  {
    "locId": "L508167",
    "country": "US",
    "region": "US-UT",
    "subregion": "US-UT-057",
    "lat": 41.2992503,
    "lng": -111.5869761,
    "name": "Causey Reservoir "
  },
  {
    "locId": "L291387",
    "country": "US",
    "region": "US-UT",
    "subregion": "US-UT-021",
    "lat": 37.630711,
    "lng": -112.8317727,
    "name": "Cedar Breaks NM"
  },
  {
    "locId": "L7530421",
    "country": "US",
    "region": "US-UT",
    "subregion": "US-UT-021",
    "lat": 37.6363248,
    "lng": -112.8242254,
    "name": "Cedar Breaks NM--Alpine Pond Trail"
  },
  {
    "locId": "L35803494",
    "country": "US",
    "region": "US-UT",
    "subregion": "US-UT-021",
    "lat": 37.6107364,
    "lng": -112.8309253,
    "name": "Cedar Breaks NM--Point Supreme Campground"
  },
  {
    "locId": "L15407752",
    "country": "US",
    "region": "US-UT",
    "subregion": "US-UT-021",
    "lat": 37.608996,
    "lng": -112.839823,
    "name": "Cedar Breaks NM--Ramparts Trail"
  },
  {
    "locId": "L7615257",
    "country": "US",
    "region": "US-UT",
    "subregion": "US-UT-021",
    "lat": 37.6413204,
    "lng": -112.9547739,
    "name": "Cedar Canyon"
  },
  {
    "locId": "L5001466",
    "country": "US",
    "region": "US-UT",
    "subregion": "US-UT-021",
    "lat": 37.5909135,
    "lng": -112.902102,
    "name": "Cedar Canyon CG"
  },
  {
    "locId": "L508207",
    "country": "US",
    "region": "US-UT",
    "subregion": "US-UT-021",
    "lat": 37.6314308,
    "lng": -112.9407406,
    "name": "Cedar Canyon--Junction with Ashdown Creek"
  },
  {
    "locId": "L1406418",
    "country": "US",
    "region": "US-UT",
    "subregion": "US-UT-021",
    "lat": 37.672848,
    "lng": -113.045114,
    "name": "Cedar Canyon--Lower (aka Canyon Trail)"
  },
  {
    "locId": "L1828253",
    "country": "US",
    "region": "US-UT",
    "subregion": "US-UT-021",
    "lat": 37.6520072,
    "lng": -112.9864774,
    "name": "Cedar Canyon--SR 14 & Right Hand Canyon Rd. Jct."
  },
  {
    "locId": "L1421313",
    "country": "US",
    "region": "US-UT",
    "subregion": "US-UT-021",
    "lat": 37.5706385,
    "lng": -112.8585173,
    "name": "Cedar Canyon--Zion Overlook"
  },
  {
    "locId": "L11837127",
    "country": "US",
    "region": "US-UT",
    "subregion": "US-UT-021",
    "lat": 37.6909701,
    "lng": -113.1029208,
    "name": "Cedar City Regional Airport"
  },
  {
    "locId": "L1359246",
    "country": "US",
    "region": "US-UT",
    "subregion": "US-UT-049",
    "lat": 40.3272427,
    "lng": -112.1067756,
    "name": "Cedar Fort"
  },
  {
    "locId": "L1459242",
    "country": "US",
    "region": "US-UT",
    "subregion": "US-UT-021",
    "lat": 37.6624144,
    "lng": -113.0874434,
    "name": "Cedar Hill Pond"
  },
  {
    "locId": "L517405",
    "country": "US",
    "region": "US-UT",
    "subregion": "US-UT-049",
    "lat": 40.4270875,
    "lng": -111.7673063,
    "name": "Cedar Hills GC"
  },
  {
    "locId": "L7041895",
    "country": "US",
    "region": "US-UT",
    "subregion": "US-UT-049",
    "lat": 40.424033,
    "lng": -111.7630684,
    "name": "Cedar Hills Parkway GC"
  },
  {
    "locId": "L1112104",
    "country": "US",
    "region": "US-UT",
    "subregion": "US-UT-049",
    "lat": 39.9658721,
    "lng": -111.8130112,
    "name": "Cedar Hollow Reservoir"
  },
  {
    "locId": "L3355966",
    "country": "US",
    "region": "US-UT",
    "subregion": "US-UT-021",
    "lat": 37.6732061,
    "lng": -113.1607354,
    "name": "Cedar Meadows"
  },
  {
    "locId": "L25891452",
    "country": "US",
    "region": "US-UT",
    "subregion": "US-UT-017",
    "lat": 38.0073899,
    "lng": -111.0846519,
    "name": "Cedar Mesa Campground"
  },
  {
    "locId": "L21467908",
    "country": "US",
    "region": "US-UT",
    "subregion": "US-UT-015",
    "lat": 39.1779135,
    "lng": -110.6245835,
    "name": "Cedar Mountain Recreation Area"
  },
  {
    "locId": "L7361149",
    "country": "US",
    "region": "US-UT",
    "subregion": "US-UT-045",
    "lat": 40.71005,
    "lng": -112.928323,
    "name": "Cedar Mountains--Hastings Pass Rd."
  },
  {
    "locId": "L503403",
    "country": "US",
    "region": "US-UT",
    "subregion": "US-UT-049",
    "lat": 40.2620747,
    "lng": -112.0446004,
    "name": "Cedar Valley Bottoms"
  },
  {
    "locId": "L599051",
    "country": "US",
    "region": "US-UT",
    "subregion": "US-UT-051",
    "lat": 40.4168778,
    "lng": -111.2207794,
    "name": "Center Creek Canyon & Bald Knoll"
  },
  {
    "locId": "L5616142",
    "country": "US",
    "region": "US-UT",
    "subregion": "US-UT-011",
    "lat": 40.9331953,
    "lng": -111.8897009,
    "name": "Centerville Community Park"
  },
  {
    "locId": "L4060994",
    "country": "US",
    "region": "US-UT",
    "subregion": "US-UT-011",
    "lat": 40.9276125,
    "lng": -111.8904667,
    "name": "Centerville Swamp"
  },
  {
    "locId": "L9526253",
    "country": "US",
    "region": "US-UT",
    "subregion": "US-UT-053",
    "lat": 37.4166697,
    "lng": -113.6245862,
    "name": "Central"
  },
  {
    "locId": "L2147276",
    "country": "US",
    "region": "US-UT",
    "subregion": "US-UT-049",
    "lat": 40.3993136,
    "lng": -111.9068456,
    "name": "Central Lehi Fields"
  },